,Country Code,2016,city,city_ascii,lat,lng,pop,country,iso2,iso3,province
0,ABW,104822.0,Oranjestad,Oranjestad,12.53038373,-70.02899195,50887.5,Aruba,AW,ABW,
1,AFG,34656032.0,Qal eh-ye Now,Qal eh-ye,34.98300013,63.13329964,2997.0,Afghanistan,AF,AFG,Badghis
2,AFG,34656032.0,Chaghcharan,Chaghcharan,34.5167011,65.25000063,15000.0,Afghanistan,AF,AFG,Ghor
3,AFG,34656032.0,Lashkar Gah,Lashkar Gah,31.58299802,64.35999955,201546.0,Afghanistan,AF,AFG,Hilmand
4,AFG,34656032.0,Zaranj,Zaranj,31.11200108,61.88699752,49851.0,Afghanistan,AF,AFG,Nimroz
5,AFG,34656032.0,Tarin Kowt,Tarin Kowt,32.63329815,65.86669865,10000.0,Afghanistan,AF,AFG,Uruzgan
6,AFG,34656032.0,Zareh Sharan,Zareh Sharan,32.85000016,68.41670453,13737.0,Afghanistan,AF,AFG,Paktika
7,AFG,34656032.0,Asadabad,Asadabad,34.86600004,71.15000459,48400.0,Afghanistan,AF,AFG,Kunar
8,AFG,34656032.0,Taloqan,Taloqan,36.72999904,69.54000364,64256.0,Afghanistan,AF,AFG,Takhar
9,AFG,34656032.0,Mahmud-E Eraqi,Mahmud-E Eraqi,35.01669608,69.33330065,7407.0,Afghanistan,AF,AFG,Kapisa
10,AFG,34656032.0,Mehtar Lam,Mehtar Lam,34.65000001,70.16670052,17345.0,Afghanistan,AF,AFG,Laghman
11,AFG,34656032.0,Baraki Barak,Baraki Barak,33.9667021,68.96670354,22305.0,Afghanistan,AF,AFG,Logar
12,AFG,34656032.0,Aybak,Aybak,36.26100015,68.04000051,24000.0,Afghanistan,AF,AFG,Samangan
13,AFG,34656032.0,Mayda Shahr,Mayda Shahr,34.45000209,68.79999663,35008.0,Afghanistan,AF,AFG,Wardak
14,AFG,34656032.0,Karokh,Karokh,34.48676963,62.59177608,14388.5,Afghanistan,AF,AFG,Hirat
15,AFG,34656032.0,Sheberghan,Sheberghan,36.65798077,65.73830237,74441.0,Afghanistan,AF,AFG,Jawzjan
16,AFG,34656032.0,Pol-e Khomri,Pol-e Khomri,35.95107302,68.70111894,41029.0,Afghanistan,AF,AFG,Baghlan
17,AFG,34656032.0,Balkh,Balkh,36.75011985,66.89973018,147426.0,Afghanistan,AF,AFG,Balkh
18,AFG,34656032.0,Meymaneh,Meymaneh,35.93022158,64.77009273,199795.0,Afghanistan,AF,AFG,Faryab
19,AFG,34656032.0,Andkhvoy,Andkhvoy,36.93165916,65.10149369,50469.0,Afghanistan,AF,AFG,Faryab
20,AFG,34656032.0,Qalat,Qalat,32.11226341,66.8867594,12191.0,Afghanistan,AF,AFG,Zabul
21,AFG,34656032.0,Ghazni,Ghazni,33.56331179,68.41782873,129892.5,Afghanistan,AF,AFG,Ghazni
22,AFG,34656032.0,Feyzabad,Feyzabad,37.12976076,70.57924719,52490.0,Afghanistan,AF,AFG,Badakhshan
23,AFG,34656032.0,Kondoz,Kondoz,36.72795066,68.87252966,210855.5,Afghanistan,AF,AFG,Kunduz
24,AFG,34656032.0,Jalalabad,Jalalabad,34.44152692,70.43610347,401697.0,Afghanistan,AF,AFG,Nangarhar
25,AFG,34656032.0,Charikar,Charikar,35.01826174,69.16791215,53676.0,Afghanistan,AF,AFG,Parwan
26,AFG,34656032.0,Gardiz,Gardiz,33.60005373,69.21462764,82680.5,Afghanistan,AF,AFG,Paktya
27,AFG,34656032.0,Bamian,Bamian,34.82106447,67.52103593,61863.0,Afghanistan,AF,AFG,Bamyan
28,AFG,34656032.0,Baghlan,Baghlan,36.13933026,68.69925858,163598.5,Afghanistan,AF,AFG,Baghlan
29,AFG,34656032.0,Farah,Farah,32.39172955,62.09681921,58604.0,Afghanistan,AF,AFG,Farah
30,AFG,34656032.0,Herat,Herat,34.33000917,62.16999304,439232.5,Afghanistan,AF,AFG,Hirat
31,AFG,34656032.0,Mazar-e Sharif,Mazar-e Sharif,36.69999371,67.10002803,365432.5,Afghanistan,AF,AFG,Balkh
32,AFG,34656032.0,Kandahar,Kandahar,31.61002016,65.69494584,613871.0,Afghanistan,AF,AFG,Kandahar
33,AFG,34656032.0,Kabul,Kabul,34.51669029,69.18326005,3160266.0,Afghanistan,AF,AFG,Kabul
34,AGO,28813463.0,Mucusso,Mucusso,-18.01953449,21.42999914,100.0,Angola,AO,AGO,Cuando Cubango
35,AGO,28813463.0,Lucapa,Lucapa,-8.419603659,20.74001542,25578.0,Angola,AO,AGO,Lunda Norte
36,AGO,28813463.0,Capenda-Camulemba,Capenda-Camulemba,-9.4195943,18.43002722,79842.5,Angola,AO,AGO,Lunda Norte
37,AGO,28813463.0,Saurimo,Saurimo,-9.659579652,20.39001094,40907.0,Angola,AO,AGO,Lunda Sul
38,AGO,28813463.0,Muconda,Muconda,-10.59962563,21.31998002,2324.0,Angola,AO,AGO,Lunda Sul
39,AGO,28813463.0,Cacolo,Cacolo,-10.14962726,19.2600024,984.0,Angola,AO,AGO,Lunda Sul
40,AGO,28813463.0,Caxito,Caxito,-8.579542217,13.65998246,15665.5,Angola,AO,AGO,Bengo
41,AGO,28813463.0,Camabatela,Camabatela,-8.189591859,15.37000728,12731.0,Angola,AO,AGO,Cuanza Norte
42,AGO,28813463.0,Ndalatando,Ndalatando,-9.299549948,14.90998368,8144.0,Angola,AO,AGO,Cuanza Norte
43,AGO,28813463.0,Quibala,Quibala,-10.72959186,14.97995357,5248.5,Angola,AO,AGO,Cuanza Sul
44,AGO,28813463.0,Calulo,Calulo,-9.999610577,14.90001013,795.0,Angola,AO,AGO,Cuanza Sul
45,AGO,28813463.0,Waku Kungo,Waku Kungo,-11.35952757,15.1199967,11519.5,Angola,AO,AGO,Cuanza Sul
46,AGO,28813463.0,Songo,Songo,-7.349591452,14.84998734,10579.0,Angola,AO,AGO,Uíge
47,AGO,28813463.0,Mbanza-Congo,Mbanza-Congo,-6.269605694,14.23999874,42201.0,Angola,AO,AGO,Zaire
48,AGO,28813463.0,Nzeto,Nzeto,-7.229598776,12.86003129,19705.5,Angola,AO,AGO,Zaire
49,AGO,28813463.0,Soyo,Soyo,-6.129614239,12.36998368,65329.0,Angola,AO,AGO,Zaire
50,AGO,28813463.0,Cabinda,Cabinda,-5.55962319,12.18999467,78905.5,Angola,AO,AGO,Cabinda
51,AGO,28813463.0,Calucinga,Calucinga,-11.31958169,16.19998246,531.0,Angola,AO,AGO,Bié
52,AGO,28813463.0,Camacupa,Camacupa,-12.01959064,17.46998246,19489.0,Angola,AO,AGO,Bié
53,AGO,28813463.0,Cubal,Cubal,-13.03958006,14.23999874,4837.0,Angola,AO,AGO,Benguela
54,AGO,28813463.0,Mavinga,Mavinga,-15.7895414,20.36003861,30000.0,Angola,AO,AGO,Cuando Cubango
55,AGO,28813463.0,Cuito Caunavale,Cuito Caunavale,-15.15960569,19.16998205,149.0,Angola,AO,AGO,Cuando Cubango
56,AGO,28813463.0,Luiana,Luiana,-17.36954832,22.99998083,150.0,Angola,AO,AGO,Cuando Cubango
57,AGO,28813463.0,Ondjiva,Ondjiva,-17.06961831,15.73003699,8748.0,Angola,AO,AGO,Cunene
58,AGO,28813463.0,Chitado,Chitado,-17.31962889,13.92001827,468.5,Angola,AO,AGO,Cunene
59,AGO,28813463.0,Chibemba,Chibemba,-15.74959552,14.0800085,1502.0,Angola,AO,AGO,Huíla
60,AGO,28813463.0,Chibia,Chibia,-15.1896297,13.69000647,1411.0,Angola,AO,AGO,Huíla
61,AGO,28813463.0,Quipungo,Quipungo,-14.82954832,14.55000565,186.0,Angola,AO,AGO,Huíla
62,AGO,28813463.0,Luau,Luau,-10.7095414,22.23000199,9964.0,Angola,AO,AGO,Moxico
63,AGO,28813463.0,Cangamba,Cangamba,-13.69959145,19.86001745,1307.0,Angola,AO,AGO,Moxico
64,AGO,28813463.0,Lumbala Nguimbo,Lumbala Nguimbo,-14.09961871,21.44002437,25.0,Angola,AO,AGO,Moxico
65,AGO,28813463.0,Cazombo,Cazombo,-11.88957273,22.90003861,298.0,Angola,AO,AGO,Moxico
66,AGO,28813463.0,Dundo,Dundo,-7.380028871,20.82998409,11985.0,Angola,AO,AGO,Lunda Norte
67,AGO,28813463.0,Ambriz,Ambriz,-7.85498696,13.12502803,17000.0,Angola,AO,AGO,Bengo
68,AGO,28813463.0,Dondo,Dondo,-9.690017071,14.43001298,2353.0,Angola,AO,AGO,Cuanza Norte
69,AGO,28813463.0,Sumbe,Sumbe,-11.21002765,13.8499967,29638.5,Angola,AO,AGO,Cuanza Sul
70,AGO,28813463.0,Uige,Uige,-7.620014222,15.04997514,56787.5,Angola,AO,AGO,Uíge
71,AGO,28813463.0,Kuito,Kuito,-12.38003375,16.93998897,113955.0,Angola,AO,AGO,Bié
72,AGO,28813463.0,Lobito,Lobito,-12.37000853,13.54123002,170733.0,Angola,AO,AGO,Benguela
73,AGO,28813463.0,Xangongo,Xangongo,-16.74002602,14.96998002,447.0,Angola,AO,AGO,Cunene
74,AGO,28813463.0,Luena,Luena,-11.79004393,19.90001501,17276.5,Angola,AO,AGO,Moxico
75,AGO,28813463.0,Tômbua,Tombua,-15.80003172,11.85998897,40000.0,Angola,AO,AGO,Namibe
76,AGO,28813463.0,Malanje,Malanje,-9.540000388,16.34002559,106451.0,Angola,AO,AGO,Malanje
77,AGO,28813463.0,Benguela,Benguela,-12.57826455,13.40723303,142017.0,Angola,AO,AGO,Benguela
78,AGO,28813463.0,Lubango,Lubango,-14.91000853,13.49001868,114086.5,Angola,AO,AGO,Huíla
79,AGO,28813463.0,Namibe,Namibe,-15.19004311,12.16002234,128130.5,Angola,AO,AGO,Namibe
80,AGO,28813463.0,Menongue,Menongue,-14.66661253,17.69999426,13030.0,Angola,AO,AGO,Cuando Cubango
81,AGO,28813463.0,Huambo,Huambo,-12.74998533,15.76000932,986000.0,Angola,AO,AGO,Huambo
82,AGO,28813463.0,Luanda,Luanda,-8.838286114,13.23442704,3562086.0,Angola,AO,AGO,Luanda
83,ALB,2876101.0,Kruje,Kruje,41.51899817,19.79700359,21286.0,Albania,AL,ALB,Durrës
84,ALB,2876101.0,Fier,Fier,40.73000402,19.5730026,69747.5,Albania,AL,ALB,Fier
85,ALB,2876101.0,Lushnje,Lushnje,40.94000113,19.71600348,41469.0,Albania,AL,ALB,Fier
86,ALB,2876101.0,Puke,Puke,42.03330302,19.88330448,6495.0,Albania,AL,ALB,Shkodër
87,ALB,2876101.0,Bajram Curri,Bajram Curri,42.33330007,20.08330257,7967.0,Albania,AL,ALB,Kukës
88,ALB,2876101.0,Kukes,Kukes,42.08300107,20.43399653,17832.0,Albania,AL,ALB,Kukës
89,ALB,2876101.0,Sarande,Sarande,39.87700212,19.99999859,15147.0,Albania,AL,ALB,Vlorë
90,ALB,2876101.0,Erseke,Erseke,40.33330213,20.68329651,7890.0,Albania,AL,ALB,Korçë
91,ALB,2876101.0,Pogradec,Pogradec,40.89999612,20.66400062,35000.0,Albania,AL,ALB,Korçë
92,ALB,2876101.0,Korce,Korce,40.61667601,20.76666353,58259.0,Albania,AL,ALB,Korçë
93,ALB,2876101.0,Berat,Berat,40.70999705,19.97199958,46866.0,Albania,AL,ALB,Berat
94,ALB,2876101.0,Corovode,Corovode,40.51670403,20.23329663,14046.0,Albania,AL,ALB,Berat
95,ALB,2876101.0,Gramsh,Gramsh,40.86669601,20.19999652,11556.0,Albania,AL,ALB,Elbasan
96,ALB,2876101.0,Librazhd,Librazhd,41.20000211,20.3667036,12691.0,Albania,AL,ALB,Elbasan
97,ALB,2876101.0,Tepelene,Tepelene,40.2832981,20.03329854,11955.0,Albania,AL,ALB,Gjirokastër
98,ALB,2876101.0,Permet,Permet,40.23399605,20.35199756,10686.0,Albania,AL,ALB,Gjirokastër
99,ALB,2876101.0,Gjirokaster,Gjirokaster,40.07899809,20.14900256,23437.0,Albania,AL,ALB,Gjirokastër
100,ALB,2876101.0,Peshkopi,Peshkopi,41.6833021,20.43330349,14848.0,Albania,AL,ALB,Dibër
101,ALB,2876101.0,Burrel,Burrel,41.62599908,20.01600053,15405.0,Albania,AL,ALB,Dibër
102,ALB,2876101.0,Lezhe,Lezhe,41.78799914,19.65400254,18695.0,Albania,AL,ALB,Lezhë
103,ALB,2876101.0,Rreshen,Rreshen,41.78330106,19.81670459,10064.0,Albania,AL,ALB,Lezhë
104,ALB,2876101.0,Vlore,Vlore,40.47736005,19.49823075,89508.5,Albania,AL,ALB,Vlorë
105,ALB,2876101.0,Elbasan,Elbasan,41.12150677,20.08382808,132956.5,Albania,AL,ALB,Elbasan
106,ALB,2876101.0,Durres,Durres,41.3177997,19.44820797,132233.0,Albania,AL,ALB,Durrës
107,ALB,2876101.0,Shkoder,Shkoder,42.06845156,19.51884965,122006.0,Albania,AL,ALB,Shkodër
108,ALB,2876101.0,Tirana,Tirana,41.32754071,19.81888301,658318.0,Albania,AL,ALB,Durrës
109,AND,77281.0,Andorra,Andorra,42.50000144,1.516485961,38127.0,Andorra,AD,AND,
110,ARE,9269612.0,Umm al Qaywayn,Umm al Qaywayn,25.56527285,55.55334265,38531.0,United Arab Emirates,AE,ARE,Umm Al Qaywayn
111,ARE,9269612.0,Sharjah,Sharjah,25.37138287,55.40647823,952015.5,United Arab Emirates,AE,ARE,Sharjah
112,ARE,9269612.0,Jabal Ali,Jabal Ali,24.97623903,55.01074011,55817.0,United Arab Emirates,AE,ARE,Dubay
113,ARE,9269612.0,Ras al Khaymah,Ras al Khaymah,25.79153811,55.94277624,138399.0,United Arab Emirates,AE,ARE,Ras Al Khaymah
114,ARE,9269612.0,Al Fujayrah,Al Fujayrah,25.12343935,56.33748083,78289.0,United Arab Emirates,AE,ARE,Fujayrah
115,ARE,9269612.0,Al Ayn,Al Ayn,24.2304706,55.73999792,352500.5,United Arab Emirates,AE,ARE,Abu Dhabi
116,ARE,9269612.0,Abu Dhabi,Abu Dhabi,24.46668357,54.36659338,581861.0,United Arab Emirates,AE,ARE,Abu Dhabi
117,ARE,9269612.0,Dubai,Dubai,25.22999615,55.27997432,1258173.5,United Arab Emirates,AE,ARE,Dubay
118,ARG,43847430.0,28 de Noviembre,28 de Noviembre,-51.65003986,-72.30001612,5300.0,Argentina,AR,ARG,Santa Cruz
119,ARG,43847430.0,Gobernador Gregores,Gobernador Gregores,-48.76659829,-70.25001205,2519.0,Argentina,AR,ARG,Santa Cruz
120,ARG,43847430.0,Comondante Luis Piedrabuena,Comondante Luis Piedrabuena,-49.97454865,-68.90347273,410.0,Argentina,AR,ARG,Santa Cruz
121,ARG,43847430.0,Paso Rio Mayo,Paso Rio Mayo,-45.68337563,-70.26657434,1825.0,Argentina,AR,ARG,Chubut
122,ARG,43847430.0,Alto Rio Sanguer,Alto Rio Sanguer,-45.03328611,-70.83328394,1548.0,Argentina,AR,ARG,Chubut
123,ARG,43847430.0,El Maiten,El Maiten,-42.05000568,-71.16662276,4269.0,Argentina,AR,ARG,Chubut
124,ARG,43847430.0,Puerto Madryn,Puerto Madryn,-42.77001341,-65.04001998,61159.0,Argentina,AR,ARG,Chubut
125,ARG,43847430.0,Trelew,Trelew,-43.25003579,-65.3299506,93128.5,Argentina,AR,ARG,Chubut
126,ARG,43847430.0,Las Heras,Las Heras,-32.82503904,-68.80167668,66663.0,Argentina,AR,ARG,Mendoza
127,ARG,43847430.0,San Martin,San Martin,-33.06998533,-68.49001612,99974.0,Argentina,AR,ARG,Mendoza
128,ARG,43847430.0,Uspallata,Uspallata,-32.59311522,-69.34598454,2390.0,Argentina,AR,ARG,Mendoza
129,ARG,43847430.0,Cutral Co,Cutral Co,-38.94001463,-69.24002202,47597.0,Argentina,AR,ARG,Neuquén
130,ARG,43847430.0,Punta Alta,Punta Alta,-38.87996662,-62.0799681,55969.5,Argentina,AR,ARG,Ciudad de Buenos Aires
131,ARG,43847430.0,San Nicolas,San Nicolas,-33.33002114,-60.24000289,117123.5,Argentina,AR,ARG,Ciudad de Buenos Aires
132,ARG,43847430.0,Campana,Campana,-34.15999632,-58.95997766,77149.5,Argentina,AR,ARG,Ciudad de Buenos Aires
133,ARG,43847430.0,Chacabuco,Chacabuco,-34.65004393,-60.48998763,26645.0,Argentina,AR,ARG,Ciudad de Buenos Aires
134,ARG,43847430.0,Mercedes,Mercedes,-34.66001748,-59.44002588,48408.5,Argentina,AR,ARG,Ciudad de Buenos Aires
135,ARG,43847430.0,Lincoln,Lincoln,-34.88000405,-61.53994938,19924.0,Argentina,AR,ARG,Ciudad de Buenos Aires
136,ARG,43847430.0,Chivilcoy,Chivilcoy,-34.89995115,-60.03998926,43719.0,Argentina,AR,ARG,Ciudad de Buenos Aires
137,ARG,43847430.0,Veinticinco de Mayo,Veinticinco de Mayo,-35.42999632,-60.17998071,18749.0,Argentina,AR,ARG,Ciudad de Buenos Aires
138,ARG,43847430.0,Nueve de Julio,Nueve de Julio,-35.44596434,-60.88998906,26716.0,Argentina,AR,ARG,Ciudad de Buenos Aires
139,ARG,43847430.0,Dolores,Dolores,-36.33004474,-57.68997766,21586.5,Argentina,AR,ARG,Ciudad de Buenos Aires
140,ARG,43847430.0,Pedro Luro,Pedro Luro,-39.48334064,-62.68331629,7100.0,Argentina,AR,ARG,Ciudad de Buenos Aires
141,ARG,43847430.0,Tres Arroyos,Tres Arroyos,-38.3699719,-60.26994938,34773.5,Argentina,AR,ARG,Ciudad de Buenos Aires
142,ARG,43847430.0,Coronel Suarez,Coronel Suarez,-37.46661619,-61.9166189,20713.0,Argentina,AR,ARG,Ciudad de Buenos Aires
143,ARG,43847430.0,Balcarce,Balcarce,-37.83331216,-58.24999516,18967.0,Argentina,AR,ARG,Ciudad de Buenos Aires
144,ARG,43847430.0,25 de Mayo,25 de Mayo,-37.80003253,-67.68329533,17430.0,Argentina,AR,ARG,Río Negro
145,ARG,43847430.0,General Roca,General Roca,-39.01995807,-67.60996647,38578.0,Argentina,AR,ARG,Río Negro
146,ARG,43847430.0,Comallo,Comallo,-41.03332355,-70.26657434,741.0,Argentina,AR,ARG,Río Negro
147,ARG,43847430.0,Ingeniero Jacobacci,Ingeniero Jacobacci,-41.30002562,-69.58330855,5719.0,Argentina,AR,ARG,Río Negro
148,ARG,43847430.0,General Conesa,General Conesa,-40.10004718,-64.43328699,2958.0,Argentina,AR,ARG,Río Negro
149,ARG,43847430.0,Choele Choel,Choele Choel,-39.26660968,-65.68331405,9895.5,Argentina,AR,ARG,Río Negro
150,ARG,43847430.0,San Francisco,San Francisco,-31.43003375,-62.08996749,43231.0,Argentina,AR,ARG,Córdoba
151,ARG,43847430.0,Alta Gracia,Alta Gracia,-31.65999388,-64.4299797,30593.0,Argentina,AR,ARG,Córdoba
152,ARG,43847430.0,Villa Maria,Villa Maria,-32.41002562,-63.26002527,76701.0,Argentina,AR,ARG,Córdoba
153,ARG,43847430.0,Bell Ville,Bell Ville,-32.60003986,-62.67995732,29605.0,Argentina,AR,ARG,Córdoba
154,ARG,43847430.0,Villa Rumipal,Villa Rumipal,-32.18332111,-64.48328394,1269.0,Argentina,AR,ARG,Córdoba
155,ARG,43847430.0,Villa Carlos Paz,Villa Carlos Paz,-31.42000853,-64.50000126,60256.0,Argentina,AR,ARG,Córdoba
156,ARG,43847430.0,Chumbicha,Chumbicha,-28.86662433,-66.23330632,2572.0,Argentina,AR,ARG,Catamarca
157,ARG,43847430.0,Tinogasta,Tinogasta,-28.06662148,-67.56658411,587.0,Argentina,AR,ARG,Catamarca
158,ARG,43847430.0,Abra Pampa,Abra Pampa,-22.7166638,-65.6999797,4480.0,Argentina,AR,ARG,Jujuy
159,ARG,43847430.0,Humahuaca,Humahuaca,-23.19999347,-65.34994938,11369.0,Argentina,AR,ARG,Jujuy
160,ARG,43847430.0,Susques,Susques,-23.41667275,-66.4833169,1093.0,Argentina,AR,ARG,Jujuy
161,ARG,43847430.0,Chepes,Chepes,-31.34998696,-66.5999506,6020.0,Argentina,AR,ARG,La Rioja
162,ARG,43847430.0,Yacuiba,Yacuiba,-22.03003904,-63.69999841,64811.0,Argentina,AR,ARG,Salta
163,ARG,43847430.0,Tartagal,Tartagal,-22.55000731,-63.81001754,59996.5,Argentina,AR,ARG,Salta
164,ARG,43847430.0,Joaquin V. Gonzalez,Joaquin V. Gonzalez,-25.08334105,-64.18335392,13376.0,Argentina,AR,ARG,Salta
165,ARG,43847430.0,General Guemes,General Guemes,-24.6666223,-65.04996769,19828.0,Argentina,AR,ARG,Salta
166,ARG,43847430.0,Trancas,Trancas,-26.21665688,-65.28331262,1599.0,Argentina,AR,ARG,Tucumán
167,ARG,43847430.0,Presidencia Roque Saenz Pena,Presidencia Roque Saenz Pena,-26.7900069,-60.45001591,75958.0,Argentina,AR,ARG,Chaco
168,ARG,43847430.0,Pampa del Infierno,Pampa del Infierno,-26.51658689,-61.16658716,2921.0,Argentina,AR,ARG,Chaco
169,ARG,43847430.0,Villa Angela,Villa Angela,-27.58329181,-60.7166663,30051.0,Argentina,AR,ARG,Chaco
170,ARG,43847430.0,Ingeniero Guillermo N. Juarez,Ingeniero Guillermo N. Juarez,-23.90000242,-61.84998214,6453.0,Argentina,AR,ARG,Formosa
171,ARG,43847430.0,Comandante Fontana,Comandante Fontana,-25.33329995,-59.68331852,4277.0,Argentina,AR,ARG,Formosa
172,ARG,43847430.0,Doctor Pedro P. Pena,Doctor Pedro P. Pena,-22.47998574,-62.29998051,6143.0,Argentina,AR,ARG,Formosa
173,ARG,43847430.0,San Lorenzo,San Lorenzo,-28.12000324,-58.76998926,25833.5,Argentina,AR,ARG,Corrientes
174,ARG,43847430.0,Corrientes,Corrientes,-27.48996417,-58.80998682,339945.0,Argentina,AR,ARG,Corrientes
175,ARG,43847430.0,Concepcion del Uruguay,Concepcion del Uruguay,-32.47999551,-58.23999577,48275.0,Argentina,AR,ARG,Entre Ríos
176,ARG,43847430.0,Victoria,Victoria,-32.61001341,-60.17998071,20032.5,Argentina,AR,ARG,Entre Ríos
177,ARG,43847430.0,Gualeguay,Gualeguay,-33.15003213,-59.34000615,25913.0,Argentina,AR,ARG,Entre Ríos
178,ARG,43847430.0,Parana,Parana,-31.73332273,-60.53334416,226852.0,Argentina,AR,ARG,Entre Ríos
179,ARG,43847430.0,Villa Constitucion,Villa Constitucion,-33.23002724,-60.35002202,30282.5,Argentina,AR,ARG,Santa Fe
180,ARG,43847430.0,Rafaela,Rafaela,-31.25004474,-61.49997766,69649.0,Argentina,AR,ARG,Santa Fe
181,ARG,43847430.0,Eldorado,Eldorado,-26.20001707,-54.59998539,17365.0,Argentina,AR,ARG,Misiones
182,ARG,43847430.0,Rodeo,Rodeo,-30.21558592,-69.1399506,701.0,Argentina,AR,ARG,San Juan
183,ARG,43847430.0,Las Plumas,Las Plumas,-43.41627887,-67.24998845,605.0,Argentina,AR,ARG,Chubut
184,ARG,43847430.0,Gastre,Gastre,-42.28296303,-69.23330408,557.0,Argentina,AR,ARG,Chubut
185,ARG,43847430.0,Telsen,Telsen,-42.39959674,-66.95000676,493.0,Argentina,AR,ARG,Chubut
186,ARG,43847430.0,Malargue,Malargue,-35.46611815,-69.58330855,11847.0,Argentina,AR,ARG,Mendoza
187,ARG,43847430.0,Tunuyan,Tunuyan,-33.56618244,-69.01667647,22834.0,Argentina,AR,ARG,Mendoza
188,ARG,43847430.0,La Paz,La Paz,-33.46613686,-67.54999597,4400.0,Argentina,AR,ARG,Mendoza
189,ARG,43847430.0,Chos Malal,Chos Malal,-37.38295205,-70.26657434,8556.0,Argentina,AR,ARG,Neuquén
190,ARG,43847430.0,Las Lajas,Las Lajas,-38.51626788,-70.36659408,1218.0,Argentina,AR,ARG,Neuquén
191,ARG,43847430.0,Zarate,Zarate,-34.08956134,-59.04002446,86192.0,Argentina,AR,ARG,Ciudad de Buenos Aires
192,ARG,43847430.0,Carhue,Carhue,-37.1828609,-62.73331323,7190.0,Argentina,AR,ARG,Ciudad de Buenos Aires
193,ARG,43847430.0,Darregueira,Darregueira,-37.69957355,-63.16659428,3412.0,Argentina,AR,ARG,Ciudad de Buenos Aires
194,ARG,43847430.0,Juarez,Juarez,-37.66551878,-59.80002975,10609.0,Argentina,AR,ARG,Ciudad de Buenos Aires
195,ARG,43847430.0,Mar de Ajo,Mar de Ajo,-36.71622272,-56.67660283,13610.0,Argentina,AR,ARG,Ciudad de Buenos Aires
196,ARG,43847430.0,Lobos,Lobos,-35.184895,-59.09467228,18278.0,Argentina,AR,ARG,Ciudad de Buenos Aires
197,ARG,43847430.0,Chascomus,Chascomus,-35.56621539,-58.01662439,21054.0,Argentina,AR,ARG,Ciudad de Buenos Aires
198,ARG,43847430.0,Junin,Junin,-34.58456989,-60.95887374,66141.5,Argentina,AR,ARG,Ciudad de Buenos Aires
199,ARG,43847430.0,La Plata,La Plata,-34.90961465,-57.95996118,440388.5,Argentina,AR,ARG,Ciudad de Buenos Aires
200,ARG,43847430.0,Pergamino,Pergamino,-33.89959878,-60.56998275,71448.0,Argentina,AR,ARG,Ciudad de Buenos Aires
201,ARG,43847430.0,Lujan,Lujan,-34.57960895,-59.10999435,69744.5,Argentina,AR,ARG,Ciudad de Buenos Aires
202,ARG,43847430.0,Azul,Azul,-36.7796297,-59.86999964,43407.5,Argentina,AR,ARG,Ciudad de Buenos Aires
203,ARG,43847430.0,Villalonga,Villalonga,-39.88285114,-62.58332239,2838.0,Argentina,AR,ARG,Ciudad de Buenos Aires
204,ARG,43847430.0,Victorica,Victorica,-36.21625324,-65.45002079,4458.0,Argentina,AR,ARG,La Pampa
205,ARG,43847430.0,General Pico,General Pico,-35.65959471,-63.77001998,46483.0,Argentina,AR,ARG,La Pampa
206,ARG,43847430.0,San Antonio Oeste,San Antonio Oeste,-40.73287677,-64.93328231,8492.0,Argentina,AR,ARG,Río Negro
207,ARG,43847430.0,Sierra Colorado,Sierra Colorado,-40.58286009,-67.79998071,1522.0,Argentina,AR,ARG,Río Negro
208,ARG,43847430.0,Mercedes,Mercedes,-33.68958576,-65.4699679,49345.0,Argentina,AR,ARG,San Luis
209,ARG,43847430.0,Rio Tercero,Rio Tercero,-32.1796004,-64.12002446,38049.5,Argentina,AR,ARG,Córdoba
210,ARG,43847430.0,Belen,Belen,-27.64959267,-67.03328333,11359.0,Argentina,AR,ARG,Catamarca
211,ARG,43847430.0,Rinconada,Rinconada,-22.43290851,-66.16659204,6209.5,Argentina,AR,ARG,Jujuy
212,ARG,43847430.0,San Pedro,San Pedro,-24.21962116,-64.87000452,55249.0,Argentina,AR,ARG,Jujuy
213,ARG,43847430.0,Libertador General San Martin,Libertador General San Martin,-23.81954222,-64.78998356,47559.0,Argentina,AR,ARG,Jujuy
214,ARG,43847430.0,Chilecito,Chilecito,-29.16552081,-67.49999903,20343.0,Argentina,AR,ARG,La Rioja
215,ARG,43847430.0,Chamical,Chamical,-30.34958291,-66.3166604,8989.0,Argentina,AR,ARG,La Rioja
216,ARG,43847430.0,Los Blancos,Los Blancos,-23.59960732,-62.60003972,1145.0,Argentina,AR,ARG,Salta
217,ARG,43847430.0,Cafayate,Cafayate,-26.08291828,-65.96660425,9478.0,Argentina,AR,ARG,Salta
218,ARG,43847430.0,Cerrillos,Cerrillos,-24.89963133,-65.48330042,11498.0,Argentina,AR,ARG,Salta
219,ARG,43847430.0,San Antonio de los Cobres,San Antonio de los Cobres,-24.18293089,-66.35001754,4000.0,Argentina,AR,ARG,Salta
220,ARG,43847430.0,Anatuya,Anatuya,-28.46613198,-62.83330713,14133.0,Argentina,AR,ARG,Santiago del Estero
221,ARG,43847430.0,Frias,Frias,-28.64958331,-65.14998743,13594.0,Argentina,AR,ARG,Santiago del Estero
222,ARG,43847430.0,Monte Quemado,Monte Quemado,-25.79962807,-62.86658675,11387.0,Argentina,AR,ARG,Santiago del Estero
223,ARG,43847430.0,Juan Jose Castelli,Juan Jose Castelli,-25.9495414,-60.61664657,9421.0,Argentina,AR,ARG,Chaco
224,ARG,43847430.0,Charata,Charata,-27.21628579,-61.19999597,18297.0,Argentina,AR,ARG,Chaco
225,ARG,43847430.0,Las Lomitas,Las Lomitas,-24.69959186,-60.60000676,7683.0,Argentina,AR,ARG,Formosa
226,ARG,43847430.0,Mercedes,Mercedes,-29.1795768,-58.0799797,22872.5,Argentina,AR,ARG,Corrientes
227,ARG,43847430.0,Concordia,Concordia,-31.38957111,-58.02998275,132760.5,Argentina,AR,ARG,Entre Ríos
228,ARG,43847430.0,Sunchales,Sunchales,-30.93290648,-61.56661442,12655.0,Argentina,AR,ARG,Santa Fe
229,ARG,43847430.0,San Justo,San Justo,-30.78288979,-60.58328943,9607.0,Argentina,AR,ARG,Santa Fe
230,ARG,43847430.0,Vera,Vera,-29.4661743,-60.21659347,9979.0,Argentina,AR,ARG,Santa Fe
231,ARG,43847430.0,Reconquista,Reconquista,-29.13952757,-59.65001306,86640.5,Argentina,AR,ARG,Santa Fe
232,ARG,43847430.0,Venado Tuerto,Venado Tuerto,-33.74958209,-61.97000065,52079.0,Argentina,AR,ARG,Santa Fe
233,ARG,43847430.0,Esquel,Esquel,-42.90003131,-71.31661361,20048.0,Argentina,AR,ARG,Chubut
234,ARG,43847430.0,Zapala,Zapala,-38.90001707,-70.06666406,19152.0,Argentina,AR,ARG,Neuquén
235,ARG,43847430.0,Olavarria,Olavarria,-36.90003579,-60.3299974,65059.0,Argentina,AR,ARG,Ciudad de Buenos Aires
236,ARG,43847430.0,Tandil,Tandil,-37.32001015,-59.15004358,84799.5,Argentina,AR,ARG,Ciudad de Buenos Aires
237,ARG,43847430.0,Viedma,Viedma,-40.79995278,-63.0000153,54031.0,Argentina,AR,ARG,Ciudad de Buenos Aires
238,ARG,43847430.0,San Luis,San Luis,-33.29999713,-66.35001754,308146.0,Argentina,AR,ARG,San Luis
239,ARG,43847430.0,Rio Cuarto,Rio Cuarto,-33.13003335,-64.34998458,135959.5,Argentina,AR,ARG,Córdoba
240,ARG,43847430.0,San Salvador de Jujuy,San Salvador de Jujuy,-24.1833443,-65.30002995,258739.0,Argentina,AR,ARG,Jujuy
241,ARG,43847430.0,San Ramon de la Nueva Oran,San Ramon de la Nueva Oran,-23.13999713,-64.32001225,69461.5,Argentina,AR,ARG,Salta
242,ARG,43847430.0,Goya,Goya,-29.13999266,-59.26998458,71274.5,Argentina,AR,ARG,Corrientes
243,ARG,43847430.0,Puerto San Julian,Puerto San Julian,-49.30000242,-67.71665247,2347.0,Argentina,AR,ARG,Santa Cruz
244,ARG,43847430.0,Perito Moreno,Perito Moreno,-46.60001219,-70.93335535,3766.0,Argentina,AR,ARG,Santa Cruz
245,ARG,43847430.0,Rio Grande,Rio Grande,-53.79144552,-67.6989952,31095.0,Argentina,AR,ARG,Tierra del Fuego
246,ARG,43847430.0,Ushuaia,Ushuaia,-54.79000324,-68.31000126,50483.5,Argentina,AR,ARG,Tierra del Fuego
247,ARG,43847430.0,Sarmiento,Sarmiento,-45.60002155,-69.08331323,5185.0,Argentina,AR,ARG,Chubut
248,ARG,43847430.0,San Rafael,San Rafael,-34.60002114,-68.33333317,79523.5,Argentina,AR,ARG,Mendoza
249,ARG,43847430.0,Necochea,Necochea,-38.55998615,-58.74999048,70562.0,Argentina,AR,ARG,Ciudad de Buenos Aires
250,ARG,43847430.0,Rio Colorado,Rio Colorado,-38.96657632,-64.08328251,11499.0,Argentina,AR,ARG,La Pampa
251,ARG,43847430.0,Catamarca,Catamarca,-28.47000771,-65.78000065,162586.0,Argentina,AR,ARG,Catamarca
252,ARG,43847430.0,La Rioja,La Rioja,-29.40995034,-66.84996118,147130.0,Argentina,AR,ARG,La Rioja
253,ARG,43847430.0,Santiago del Estero,Santiago del Estero,-27.78333128,-64.26665633,317549.5,Argentina,AR,ARG,Santiago del Estero
254,ARG,43847430.0,Resistencia,Resistencia,-27.45999184,-58.99002751,368455.5,Argentina,AR,ARG,Chaco
255,ARG,43847430.0,Gualeguaychu,Gualeguaychu,-33.02001422,-58.52000452,55860.5,Argentina,AR,ARG,Entre Ríos
256,ARG,43847430.0,El Calafate,El Calafate,-50.33332436,-72.30001612,6329.0,Argentina,AR,ARG,Santa Cruz
257,ARG,43847430.0,San Juan,San Juan,-31.55002643,-68.51998845,433892.0,Argentina,AR,ARG,San Juan
258,ARG,43847430.0,Rawson,Rawson,-43.3000069,-65.09999048,25062.5,Argentina,AR,ARG,Chubut
259,ARG,43847430.0,Neuquen,Neuquen,-38.95003986,-68.05999068,213823.5,Argentina,AR,ARG,Neuquén
260,ARG,43847430.0,Santa Rosa,Santa Rosa,-36.6200012,-64.29998763,97693.5,Argentina,AR,ARG,La Pampa
261,ARG,43847430.0,San Carlos de Bariloche,San Carlos de Bariloche,-41.14995726,-71.29999964,91953.0,Argentina,AR,ARG,Río Negro
262,ARG,43847430.0,Salta,Salta,-24.78335936,-65.41663782,484646.0,Argentina,AR,ARG,Salta
263,ARG,43847430.0,Tucumán,San Miguel de Tucuman,-26.81600014,-65.21662419,678803.5,Argentina,AR,ARG,Tucumán
264,ARG,43847430.0,Formosa,Formosa,-26.17283527,-58.1828158,202272.0,Argentina,AR,ARG,Formosa
265,ARG,43847430.0,Santa Fe,Santa Fe,-31.62387205,-60.69000126,393504.0,Argentina,AR,ARG,Santa Fe
266,ARG,43847430.0,Rosario,Rosario,-32.95112954,-60.66630762,1094784.5,Argentina,AR,ARG,Santa Fe
267,ARG,43847430.0,Puerto Deseado,Puerto Deseado,-47.75001951,-65.89996749,3305.0,Argentina,AR,ARG,Santa Cruz
268,ARG,43847430.0,Rio Gallegos,Rio Gallegos,-51.63329669,-69.21658675,77183.0,Argentina,AR,ARG,Santa Cruz
269,ARG,43847430.0,Comodoro Rivadavia,Comodoro Rivadavia,-45.87003091,-67.49999903,123291.0,Argentina,AR,ARG,Chubut
270,ARG,43847430.0,Mendoza,Mendoza,-32.88333006,-68.81661117,827815.0,Argentina,AR,ARG,Mendoza
271,ARG,43847430.0,Bahia Blanca,Bahia Blanca,-38.74002684,-62.2650214,279041.0,Argentina,AR,ARG,Ciudad de Buenos Aires
272,ARG,43847430.0,Mar del Plata,Mar del Plata,-38.00002033,-57.57998438,554916.0,Argentina,AR,ARG,Ciudad de Buenos Aires
273,ARG,43847430.0,Córdoba,Cordoba,-31.39995807,-64.18229456,1374467.5,Argentina,AR,ARG,Córdoba
274,ARG,43847430.0,Posadas,Posadas,-27.3578321,-55.88510735,334589.5,Argentina,AR,ARG,Misiones
275,ARG,43847430.0,Buenos Aires,Buenos Aires,-34.60250161,-58.39753137,11862073.0,Argentina,AR,ARG,Ciudad de Buenos Aires
276,ARM,2924816.0,Ashtarak,Ashtarak,40.3016667,44.3591667,18779.0,Armenia,AM,ARM,Aragatsotn
277,ARM,2924816.0,Ijevan,Ijevan,40.8755556,45.1491667,14737.0,Armenia,AM,ARM,Tavush
278,ARM,2924816.0,Artashat,Artashat,39.9538889,44.5505556,20562.0,Armenia,AM,ARM,Ararat
279,ARM,2924816.0,Gavarr,Gavarr,40.3588889,45.1266667,21680.0,Armenia,AM,ARM,Gegharkunik
280,ARM,2924816.0,Yeghegnadzor,Yeghegnadzor,39.7611111,45.3333333,8200.0,Armenia,AM,ARM,Vayots Dzor
281,ARM,2924816.0,Gyumri,Gyumri,40.78943402,43.84749385,140277.5,Armenia,AM,ARM,Shirak
282,ARM,2924816.0,Vanadzor,Vanadzor,40.81276593,44.48828162,89295.0,Armenia,AM,ARM,Lori
283,ARM,2924816.0,Yerevan,Yerevan,40.18115074,44.51355139,1097742.5,Armenia,AM,ARM,Erevan
284,ASM,55599.0,Pago Pago,Pago Pago,-14.2766105,-170.7066451,12038.0,American Samoa,AS,ASM,
285,ATG,100963.0,Saint John's,Saint John's,17.11803652,-61.85003382,29862.5,Antigua and Barbuda,AG,ATG,
286,AUS,24127159.0,Central Coast,Central Coast,-33.42004148,151.3000048,3026.0,Australia,AU,AUS,New South Wales
287,AUS,24127159.0,Sunshine Coast,Sunshine Coast,-26.67998777,153.0500272,57215.5,Australia,AU,AUS,Queensland
288,AUS,24127159.0,Bourke,Bourke,-30.1,145.9333333,2475.0,Australia,AU,AUS,New South Wales
289,AUS,24127159.0,Pine Creek,Pine Creek,-13.81617348,131.816698,505.0,Australia,AU,AUS,Northern Territory
290,AUS,24127159.0,Adelaide River,Adelaide River,-13.2495414,131.0999975,237.0,Australia,AU,AUS,Northern Territory
291,AUS,24127159.0,McMinns Lagoon,McMinns Lagoon,-12.53289264,131.0500264,5025.0,Australia,AU,AUS,Northern Territory
292,AUS,24127159.0,Newcastle Waters,Newcastle Waters,-17.55279295,133.4672432,10.0,Australia,AU,AUS,Northern Territory
293,AUS,24127159.0,Ravensthorpe,Ravensthorpe,-33.58287392,120.0333345,639.0,Australia,AU,AUS,Western Australia
294,AUS,24127159.0,Wagin,Wagin,-33.29958372,117.3499841,1037.5,Australia,AU,AUS,Western Australia
295,AUS,24127159.0,Roebourne,Roebourne,-20.7829317,117.1333048,11281.5,Australia,AU,AUS,Western Australia
296,AUS,24127159.0,Pannawonica,Pannawonica,-21.63657469,116.3250337,686.0,Australia,AU,AUS,Western Australia
297,AUS,24127159.0,Tom Price,Tom Price,-22.69346108,117.7930578,1822.0,Australia,AU,AUS,Western Australia
298,AUS,24127159.0,Kalbarri,Kalbarri,-27.66618081,114.1666642,1537.0,Australia,AU,AUS,Western Australia
299,AUS,24127159.0,Mount Magnet,Mount Magnet,-28.06620807,117.8166739,424.0,Australia,AU,AUS,Western Australia
300,AUS,24127159.0,Morawa,Morawa,-29.21626707,116.0000406,259.0,Australia,AU,AUS,Western Australia
301,AUS,24127159.0,Port Denison,Port Denison,-29.28282632,114.9166442,1213.0,Australia,AU,AUS,Western Australia
302,AUS,24127159.0,Merredin,Merredin,-31.48284707,118.2666723,2054.0,Australia,AU,AUS,Western Australia
303,AUS,24127159.0,Mount Barker,Mount Barker,-34.632784,117.6666056,1771.5,Australia,AU,AUS,Western Australia
304,AUS,24127159.0,Katanning,Katanning,-33.69955931,117.5500752,3140.0,Australia,AU,AUS,Western Australia
305,AUS,24127159.0,Narrogin,Narrogin,-32.93288776,117.1666361,3995.0,Australia,AU,AUS,Western Australia
306,AUS,24127159.0,Gingin,Gingin,-31.34957355,115.9000468,1446.0,Australia,AU,AUS,Western Australia
307,AUS,24127159.0,Bunbury,Bunbury,-33.34428384,115.6502429,26683.5,Australia,AU,AUS,Western Australia
308,AUS,24127159.0,Kwinana,Kwinana,-32.23939004,115.7702356,18817.5,Australia,AU,AUS,Western Australia
309,AUS,24127159.0,Southern Cross,Southern Cross,-31.216145,119.3166857,187.0,Australia,AU,AUS,Western Australia
310,AUS,24127159.0,Kaltukatjara,Kaltukatjara,-25.78841429,128.9973352,355.0,Australia,AU,AUS,Northern Territory
311,AUS,24127159.0,Queanbeyan,Queanbeyan,-35.3546004,149.2113468,32408.0,Australia,AU,AUS,Australian Capital Territory
312,AUS,24127159.0,Tweed Heads,Tweed Heads,-28.1825834,153.5466377,33065.0,Australia,AU,AUS,New South Wales
313,AUS,24127159.0,Ivanhoe,Ivanhoe,-32.89960814,144.3000187,265.0,Australia,AU,AUS,New South Wales
314,AUS,24127159.0,Wilcannia,Wilcannia,-31.56620115,143.3833304,442.0,Australia,AU,AUS,New South Wales
315,AUS,24127159.0,Merimbula,Merimbula,-36.89962238,149.9000386,3607.5,Australia,AU,AUS,New South Wales
316,AUS,24127159.0,Echuca,Echuca,-36.12959186,144.750017,13460.0,Australia,AU,AUS,New South Wales
317,AUS,24127159.0,Deniliquin,Deniliquin,-35.5295768,144.9500048,6019.5,Australia,AU,AUS,New South Wales
318,AUS,24127159.0,Nowra,Nowra,-34.88284625,150.6000476,61036.5,Australia,AU,AUS,New South Wales
319,AUS,24127159.0,Ulladulla,Ulladulla,-35.34953611,150.4700297,6811.0,Australia,AU,AUS,New South Wales
320,AUS,24127159.0,Batemans Bay,Batemans Bay,-35.68961871,150.2073067,5604.0,Australia,AU,AUS,New South Wales
321,AUS,24127159.0,Cooma,Cooma,-36.23955931,149.1200345,5661.5,Australia,AU,AUS,New South Wales
322,AUS,24127159.0,Tumut,Tumut,-35.30959023,148.2200378,4873.0,Australia,AU,AUS,New South Wales
323,AUS,24127159.0,Leeton,Leeton,-34.54493406,146.3973067,6277.0,Australia,AU,AUS,New South Wales
324,AUS,24127159.0,Young,Young,-34.30959959,148.2900077,6422.0,Australia,AU,AUS,New South Wales
325,AUS,24127159.0,Cowra,Cowra,-33.82962889,148.6800097,5729.5,Australia,AU,AUS,New South Wales
326,AUS,24127159.0,Forbes,Forbes,-33.38960407,148.0199983,4076.5,Australia,AU,AUS,New South Wales
327,AUS,24127159.0,Goulburn,Goulburn,-34.74957273,149.7101794,16444.0,Australia,AU,AUS,New South Wales
328,AUS,24127159.0,Kiama,Kiama,-34.70957518,150.8400329,10379.0,Australia,AU,AUS,New South Wales
329,AUS,24127159.0,Katoomba,Katoomba,-33.70694904,150.320013,20334.5,Australia,AU,AUS,New South Wales
330,AUS,24127159.0,Richmond,Richmond,-33.59951373,150.7399873,9720.0,Australia,AU,AUS,New South Wales
331,AUS,24127159.0,Lithgow,Lithgow,-33.49610919,150.152788,10338.0,Australia,AU,AUS,New South Wales
332,AUS,24127159.0,Parkes,Parkes,-33.12956826,148.170015,7160.0,Australia,AU,AUS,New South Wales
333,AUS,24127159.0,Bathurst,Bathurst,-33.41962807,149.5700329,6111.0,Australia,AU,AUS,New South Wales
334,AUS,24127159.0,Maitland,Maitland,-32.72096271,151.555028,10026.5,Australia,AU,AUS,New South Wales
335,AUS,24127159.0,Singleton,Singleton,-32.56949909,151.1600134,8340.5,Australia,AU,AUS,New South Wales
336,AUS,24127159.0,Mudgee,Mudgee,-32.58960122,149.5801098,5391.0,Australia,AU,AUS,New South Wales
337,AUS,24127159.0,Muswellbrook,Muswellbrook,-32.26956907,150.890004,8171.0,Australia,AU,AUS,New South Wales
338,AUS,24127159.0,Taree,Taree,-31.89760211,152.4618461,30131.5,Australia,AU,AUS,New South Wales
339,AUS,24127159.0,Kempsey,Kempsey,-31.08736733,152.8220308,10681.0,Australia,AU,AUS,New South Wales
340,AUS,24127159.0,Gunnedah,Gunnedah,-30.9870117,150.2622904,6204.0,Australia,AU,AUS,New South Wales
341,AUS,24127159.0,Coffs Harbour,Coffs Harbour,-30.3070532,153.1122973,48961.0,Australia,AU,AUS,New South Wales
342,AUS,24127159.0,Narrabri,Narrabri,-30.33190957,149.7874357,6105.5,Australia,AU,AUS,New South Wales
343,AUS,24127159.0,Inverell,Inverell,-29.7667761,151.1125744,6845.5,Australia,AU,AUS,New South Wales
344,AUS,24127159.0,Yamba,Yamba,-29.42299136,153.353312,1806.0,Australia,AU,AUS,New South Wales
345,AUS,24127159.0,Ballina,Ballina,-28.86135333,153.5679801,13997.5,Australia,AU,AUS,New South Wales
346,AUS,24127159.0,Wagga Wagga,Wagga Wagga,-35.12215981,147.3399882,45549.0,Australia,AU,AUS,New South Wales
347,AUS,24127159.0,Scone,Scone,-32.07960651,150.8501098,4624.0,Australia,AU,AUS,New South Wales
348,AUS,24127159.0,Byron Bay,Byron Bay,-28.65650796,153.6128869,5244.5,Australia,AU,AUS,New South Wales
349,AUS,24127159.0,Berri,Berri,-34.28293455,140.6000378,4523.0,Australia,AU,AUS,South Australia
350,AUS,24127159.0,Peterborough,Peterborough,-32.96616738,138.8333239,1351.0,Australia,AU,AUS,South Australia
351,AUS,24127159.0,Wallaroo,Wallaroo,-33.9328784,137.6332938,2442.0,Australia,AU,AUS,South Australia
352,AUS,24127159.0,Clare,Clare,-33.8328845,138.6000048,2729.0,Australia,AU,AUS,South Australia
353,AUS,24127159.0,Meningie,Meningie,-35.69954059,139.3333451,850.0,Australia,AU,AUS,South Australia
354,AUS,24127159.0,Kingston South East,Kingston South East,-36.83280475,139.8500577,206.0,Australia,AU,AUS,South Australia
355,AUS,24127159.0,Bordertown,Bordertown,-36.31619546,140.7666426,1976.0,Australia,AU,AUS,South Australia
356,AUS,24127159.0,Penola,Penola,-37.38295205,140.8166654,1513.0,Australia,AU,AUS,South Australia
357,AUS,24127159.0,Kingoonya,Kingoonya,-30.89957518,135.2999996,50.0,Australia,AU,AUS,South Australia
358,AUS,24127159.0,Kimba,Kimba,-33.14961871,136.4333671,636.0,Australia,AU,AUS,South Australia
359,AUS,24127159.0,Streaky Bay,Streaky Bay,-32.81187176,134.2149296,614.5,Australia,AU,AUS,South Australia
360,AUS,24127159.0,Cowell,Cowell,-33.68286782,136.9166451,537.0,Australia,AU,AUS,South Australia
361,AUS,24127159.0,Tumby Bay,Tumby Bay,-34.38292845,136.0833109,1791.0,Australia,AU,AUS,South Australia
362,AUS,24127159.0,Andamooka,Andamooka,-30.43097329,137.1655704,528.0,Australia,AU,AUS,South Australia
363,AUS,24127159.0,Woomera,Woomera,-31.14958576,136.8000114,450.0,Australia,AU,AUS,South Australia
364,AUS,24127159.0,Port Pirie,Port Pirie,-33.19106321,137.9900162,12417.0,Australia,AU,AUS,South Australia
365,AUS,24127159.0,Gawler,Gawler,-34.60735919,138.7263537,15542.5,Australia,AU,AUS,South Australia
366,AUS,24127159.0,Murray Bridge,Murray Bridge,-35.12960122,139.2600162,14185.5,Australia,AU,AUS,South Australia
367,AUS,24127159.0,Victor Harbor,Victor Harbor,-35.55960081,138.6173164,7489.0,Australia,AU,AUS,South Australia
368,AUS,24127159.0,Hamilton,Hamilton,-37.73119953,142.0234135,6992.5,Australia,AU,AUS,Victoria
369,AUS,24127159.0,Ouyen,Ouyen,-35.06619424,142.3166772,912.0,Australia,AU,AUS,Victoria
370,AUS,24127159.0,Colac,Colac,-38.33953449,143.5800109,7450.0,Australia,AU,AUS,Victoria
371,AUS,24127159.0,Stawell,Stawell,-37.05961261,142.7600093,4596.0,Australia,AU,AUS,Victoria
372,AUS,24127159.0,Horsham,Horsham,-36.70960814,142.1900183,11985.5,Australia,AU,AUS,Victoria
373,AUS,24127159.0,Ararat,Ararat,-37.27954751,142.9099743,5464.0,Australia,AU,AUS,Victoria
374,AUS,24127159.0,Maryborough,Maryborough,-37.04958738,143.729976,5838.5,Australia,AU,AUS,Victoria
375,AUS,24127159.0,Bairnsdale,Bairnsdale,-37.82959145,147.6099975,9427.0,Australia,AU,AUS,Victoria
376,AUS,24127159.0,Sale,Sale,-38.10957436,147.0600052,17701.5,Australia,AU,AUS,Victoria
377,AUS,24127159.0,Traralgon,Traralgon,-38.19959471,146.5300118,16982.5,Australia,AU,AUS,Victoria
378,AUS,24127159.0,Wonthaggi,Wonthaggi,-38.60949217,145.5900175,4471.5,Australia,AU,AUS,Victoria
379,AUS,24127159.0,Cranbourne,Cranbourne,-38.09960081,145.2833695,249955.0,Australia,AU,AUS,Victoria
380,AUS,24127159.0,Ballarat,Ballarat,-37.55958209,143.8400468,73404.0,Australia,AU,AUS,Victoria
381,AUS,24127159.0,Melton,Melton,-37.68954832,144.570028,29750.0,Australia,AU,AUS,Victoria
382,AUS,24127159.0,Seymour,Seymour,-37.03423948,145.1273067,3693.0,Australia,AU,AUS,Victoria
383,AUS,24127159.0,Shepparton,Shepparton,-36.37458982,145.3913732,33430.5,Australia,AU,AUS,Victoria
384,AUS,24127159.0,Cobram,Cobram,-35.91963051,145.6500138,4659.0,Australia,AU,AUS,Victoria
385,AUS,24127159.0,Swan Hill,Swan Hill,-35.33961424,143.5400134,9073.0,Australia,AU,AUS,Victoria
386,AUS,24127159.0,Sunbury,Sunbury,-37.56960732,144.7100195,18677.5,Australia,AU,AUS,Victoria
387,AUS,24127159.0,Proserpine,Proserpine,-20.41623574,148.5834781,3976.0,Australia,AU,AUS,Queensland
388,AUS,24127159.0,Theodore,Theodore,-24.94949909,150.0833349,246.0,Australia,AU,AUS,Queensland
389,AUS,24127159.0,Eidsvold,Eidsvold,-25.36621784,151.1333483,459.0,Australia,AU,AUS,Queensland
390,AUS,24127159.0,Barcaldine,Barcaldine,-23.56617267,145.2833695,1068.0,Australia,AU,AUS,Queensland
391,AUS,24127159.0,Winton,Winton,-22.39962889,143.0332743,1157.0,Australia,AU,AUS,Queensland
392,AUS,24127159.0,Longreach,Longreach,-23.44959064,144.2500476,2894.0,Australia,AU,AUS,Queensland
393,AUS,24127159.0,Caboolture,Caboolture,-27.08296059,152.9499816,26495.5,Australia,AU,AUS,Queensland
394,AUS,24127159.0,Warwick,Warwick,-28.22924721,152.0203226,10024.0,Australia,AU,AUS,Queensland
395,AUS,24127159.0,Kingaroy,Kingaroy,-26.53896279,151.840592,7494.5,Australia,AU,AUS,Queensland
396,AUS,24127159.0,Dalby,Dalby,-27.19385822,151.2657434,9818.5,Australia,AU,AUS,Queensland
397,AUS,24127159.0,Bongaree,Bongaree,-27.07872313,153.1508996,10327.5,Australia,AU,AUS,Queensland
398,AUS,24127159.0,Gympie,Gympie,-26.18859658,152.6709289,11338.0,Australia,AU,AUS,Queensland
399,AUS,24127159.0,Ingham,Ingham,-18.64957355,146.1666231,5996.5,Australia,AU,AUS,Queensland
400,AUS,24127159.0,Birdsville,Birdsville,-25.89962197,139.3666247,283.0,Australia,AU,AUS,Queensland
401,AUS,24127159.0,Bedourie,Bedourie,-24.34958738,139.4666186,142.0,Australia,AU,AUS,Queensland
402,AUS,24127159.0,Boulia,Boulia,-22.89959837,139.9000288,402.5,Australia,AU,AUS,Queensland
403,AUS,24127159.0,Richmond,Richmond,-20.71626911,143.1333199,296.0,Australia,AU,AUS,Queensland
404,AUS,24127159.0,Burketown,Burketown,-17.71609048,139.5666125,186.5,Australia,AU,AUS,Queensland
405,AUS,24127159.0,Hervey Bay,Hervey Bay,-25.28870319,152.8409444,25114.0,Australia,AU,AUS,Queensland
406,AUS,24127159.0,Biloela,Biloela,-24.39356403,150.4960746,4366.5,Australia,AU,AUS,Queensland
407,AUS,24127159.0,Yeppoon,Yeppoon,-23.13291746,150.7567305,6450.5,Australia,AU,AUS,Queensland
408,AUS,24127159.0,Emerald,Emerald,-23.51222247,148.1673278,7489.0,Australia,AU,AUS,Queensland
409,AUS,24127159.0,Moranbah,Moranbah,-22.00156533,148.0380334,7357.0,Australia,AU,AUS,Queensland
410,AUS,24127159.0,Charters Towers,Charters Towers,-20.08090737,146.2587105,8369.5,Australia,AU,AUS,Queensland
411,AUS,24127159.0,Ayr,Ayr,-19.57024087,147.3994677,7166.0,Australia,AU,AUS,Queensland
412,AUS,24127159.0,Atherton,Atherton,-17.27027789,145.469353,6132.5,Australia,AU,AUS,Queensland
413,AUS,24127159.0,Port Douglas,Port Douglas,-16.48458812,145.4587219,2004.5,Australia,AU,AUS,Queensland
414,AUS,24127159.0,Smithton,Smithton,-40.83292234,145.1166613,3351.0,Australia,AU,AUS,Tasmania
415,AUS,24127159.0,Scottsdale,Scottsdale,-41.14949217,147.5166699,1683.5,Australia,AU,AUS,Tasmania
416,AUS,24127159.0,Bicheno,Bicheno,-41.87838825,148.2886124,177.0,Australia,AU,AUS,Tasmania
417,AUS,24127159.0,Oatlands,Oatlands,-42.29960285,147.3666015,1157.0,Australia,AU,AUS,Tasmania
418,AUS,24127159.0,Queenstown,Queenstown,-42.08292356,145.5500199,1658.0,Australia,AU,AUS,Tasmania
419,AUS,24127159.0,Kingston,Kingston,-42.99113686,147.3084139,12652.0,Australia,AU,AUS,Tasmania
420,AUS,24127159.0,Tennant Creek,Tennant Creek,-19.65002928,134.200015,3490.5,Australia,AU,AUS,Northern Territory
421,AUS,24127159.0,Yulara,Yulara,-25.24054075,130.9888932,930.0,Australia,AU,AUS,Northern Territory
422,AUS,24127159.0,Erldunda,Erldunda,-25.23330605,133.1999727,10.0,Australia,AU,AUS,Northern Territory
423,AUS,24127159.0,Norseman,Norseman,-32.20001259,121.7666137,1004.0,Australia,AU,AUS,Western Australia
424,AUS,24127159.0,Halls Creek,Halls Creek,-18.26670286,127.7667126,1209.0,Australia,AU,AUS,Western Australia
425,AUS,24127159.0,Kununurra,Kununurra,-15.76659707,128.7333203,5229.5,Australia,AU,AUS,Western Australia
426,AUS,24127159.0,Derby,Derby,-17.29999184,123.9666345,3199.0,Australia,AU,AUS,Western Australia
427,AUS,24127159.0,Onslow,Onslow,-21.65759354,115.0962959,573.0,Australia,AU,AUS,Western Australia
428,AUS,24127159.0,Exmouth,Exmouth,-21.93109987,114.1233469,1085.0,Australia,AU,AUS,Western Australia
429,AUS,24127159.0,Carnarvon,Carnarvon,-24.89983803,113.6501066,7392.0,Australia,AU,AUS,Western Australia
430,AUS,24127159.0,Newman,Newman,-23.36659829,119.7333011,2678.0,Australia,AU,AUS,Western Australia
431,AUS,24127159.0,Meekatharra,Meekatharra,-26.59999266,118.4832999,654.0,Australia,AU,AUS,Western Australia
432,AUS,24127159.0,Three Springs,Three Springs,-29.53330198,115.7499784,190.0,Australia,AU,AUS,Western Australia
433,AUS,24127159.0,Manjimup,Manjimup,-34.23332518,116.1500057,4016.5,Australia,AU,AUS,Western Australia
434,AUS,24127159.0,Northam,Northam,-31.65658323,116.6533858,5330.0,Australia,AU,AUS,Western Australia
435,AUS,24127159.0,Esperance,Esperance,-33.857307,121.8888973,7205.0,Australia,AU,AUS,Western Australia
436,AUS,24127159.0,Leonara,Leonara,-28.88150714,121.3280358,227.0,Australia,AU,AUS,Western Australia
437,AUS,24127159.0,Laverton,Laverton,-28.62700071,122.4040425,316.0,Australia,AU,AUS,Western Australia
438,AUS,24127159.0,Wyndham,Wyndham,-15.37395953,128.3600614,734.5,Australia,AU,AUS,Western Australia
439,AUS,24127159.0,Albury,Albury,-36.06003538,146.9200138,68534.0,Australia,AU,AUS,New South Wales
440,AUS,24127159.0,Forster-Tuncurry,Forster-Tuncurry,-32.19313963,152.5266483,13275.5,Australia,AU,AUS,New South Wales
441,AUS,24127159.0,Port Macquarie,Port Macquarie,-31.44501992,152.9186657,42070.0,Australia,AU,AUS,New South Wales
442,AUS,24127159.0,Tamworth,Tamworth,-31.10261188,150.9171342,35080.0,Australia,AU,AUS,New South Wales
443,AUS,24127159.0,Grafton,Grafton,-29.71199909,152.9376827,7871.5,Australia,AU,AUS,New South Wales
444,AUS,24127159.0,Moree,Moree,-29.469895,149.8300687,8062.0,Australia,AU,AUS,New South Wales
445,AUS,24127159.0,Goondiwindi,Goondiwindi,-28.55480874,150.325284,4251.0,Australia,AU,AUS,New South Wales
446,AUS,24127159.0,Lismore,Lismore,-28.81665322,153.2931132,28065.5,Australia,AU,AUS,New South Wales
447,AUS,24127159.0,Wollongong,Wollongong,-34.41538125,150.890004,201319.5,Australia,AU,AUS,New South Wales
448,AUS,24127159.0,Ceduna,Ceduna,-32.09913464,133.6622674,1252.5,Australia,AU,AUS,South Australia
449,AUS,24127159.0,Mount Gambier,Mount Gambier,-37.83134845,140.7650406,21818.5,Australia,AU,AUS,South Australia
450,AUS,24127159.0,Port Augusta,Port Augusta,-32.49002073,137.7700297,11186.5,Australia,AU,AUS,South Australia
451,AUS,24127159.0,Warrnambool,Warrnambool,-38.37999713,142.4700012,29882.0,Australia,AU,AUS,Victoria
452,AUS,24127159.0,Mildura,Mildura,-34.18500771,142.1513643,33324.5,Australia,AU,AUS,Victoria
453,AUS,24127159.0,Geelong,Geelong,-38.16749505,144.3956335,149336.0,Australia,AU,AUS,Victoria
454,AUS,24127159.0,Camooweal,Camooweal,-19.91673134,138.1166752,187.0,Australia,AU,AUS,Queensland
455,AUS,24127159.0,Quilpie,Quilpie,-26.61663247,144.2500476,560.0,Australia,AU,AUS,Queensland
456,AUS,24127159.0,Charleville,Charleville,-26.40000486,146.2500288,1900.0,Australia,AU,AUS,Queensland
457,AUS,24127159.0,Hughenden,Hughenden,-20.85000771,144.2000248,421.0,Australia,AU,AUS,Queensland
458,AUS,24127159.0,Caloundra,Caloundra,-26.80003213,153.1333296,33737.0,Australia,AU,AUS,Queensland
459,AUS,24127159.0,Roma,Roma,-26.55937498,148.7907006,4560.5,Australia,AU,AUS,Queensland
460,AUS,24127159.0,Toowoomba,Toowoomba,-27.56453327,151.9555204,86711.0,Australia,AU,AUS,Queensland
461,AUS,24127159.0,Georgetown,Georgetown,-18.30003416,143.5332955,818.0,Australia,AU,AUS,Queensland
462,AUS,24127159.0,Thargomindah,Thargomindah,-27.99995888,143.816689,203.0,Australia,AU,AUS,Queensland
463,AUS,24127159.0,Weipa,Weipa,-12.66663125,141.8666272,2830.0,Australia,AU,AUS,Queensland
464,AUS,24127159.0,Karumba,Karumba,-17.48333982,140.8334086,173.0,Australia,AU,AUS,Queensland
465,AUS,24127159.0,Cloncurry,Cloncurry,-20.69999103,140.4999922,1202.0,Australia,AU,AUS,Queensland
466,AUS,24127159.0,Maryborough,Maryborough,-25.54910073,152.7209,18920.5,Australia,AU,AUS,Queensland
467,AUS,24127159.0,Bundaberg,Bundaberg,-24.87906411,152.3508968,46062.0,Australia,AU,AUS,Queensland
468,AUS,24127159.0,Gladstone,Gladstone,-23.8533386,151.2467264,29055.0,Australia,AU,AUS,Queensland
469,AUS,24127159.0,Bowen,Bowen,-20.00132566,148.208669,10983.0,Australia,AU,AUS,Queensland
470,AUS,24127159.0,Innisfail,Innisfail,-17.53134723,146.0386722,9707.0,Australia,AU,AUS,Queensland
471,AUS,24127159.0,Mackay,Mackay,-21.14389158,149.1500069,66053.5,Australia,AU,AUS,Queensland
472,AUS,24127159.0,Burnie,Burnie,-41.06660317,145.9166642,18490.5,Australia,AU,AUS,Tasmania
473,AUS,24127159.0,Launceston,Launceston,-41.44983559,147.1301818,65106.5,Australia,AU,AUS,Tasmania
474,AUS,24127159.0,Katherine,Katherine,-14.46662474,132.266593,8171.5,Australia,AU,AUS,Northern Territory
475,AUS,24127159.0,Busselton,Busselton,-33.65640949,115.3486592,9595.0,Australia,AU,AUS,Western Australia
476,AUS,24127159.0,Mandurah,Mandurah,-32.52348259,115.7470567,52866.0,Australia,AU,AUS,Western Australia
477,AUS,24127159.0,Broome,Broome,-17.96177069,122.2307681,11890.5,Australia,AU,AUS,Western Australia
478,AUS,24127159.0,Kalgoorlie,Kalgoorlie,-30.73539915,121.4600175,32058.0,Australia,AU,AUS,Western Australia
479,AUS,24127159.0,Albany,Albany,-35.0169466,117.8916048,25179.0,Australia,AU,AUS,Western Australia
480,AUS,24127159.0,Port Hedland,Port Hedland,-20.31040241,118.6060315,8997.0,Australia,AU,AUS,Western Australia
481,AUS,24127159.0,Karratha,Karratha,-20.73037677,116.8700134,16636.0,Australia,AU,AUS,Western Australia
482,AUS,24127159.0,Geraldton,Geraldton,-28.76663043,114.5999711,27065.0,Australia,AU,AUS,Western Australia
483,AUS,24127159.0,Griffith,Griffith,-34.29001422,146.0400158,11664.5,Australia,AU,AUS,New South Wales
484,AUS,24127159.0,Orange,Orange,-33.27999835,149.0999841,36708.0,Australia,AU,AUS,New South Wales
485,AUS,24127159.0,Dubbo,Dubbo,-32.25995726,148.5973274,30467.5,Australia,AU,AUS,New South Wales
486,AUS,24127159.0,Armidale,Armidale,-30.51231199,151.667476,21793.5,Australia,AU,AUS,New South Wales
487,AUS,24127159.0,Broken Hill,Broken Hill,-31.94995034,141.4331136,17232.5,Australia,AU,AUS,New South Wales
488,AUS,24127159.0,Port Lincoln,Port Lincoln,-34.73324298,135.86658,12438.5,Australia,AU,AUS,South Australia
489,AUS,24127159.0,Whyalla,Whyalla,-33.02502684,137.5614119,21102.0,Australia,AU,AUS,South Australia
490,AUS,24127159.0,Portland,Portland,-38.33999957,141.5900032,10324.5,Australia,AU,AUS,Victoria
491,AUS,24127159.0,Bendigo,Bendigo,-36.75999266,144.2800199,68790.0,Australia,AU,AUS,Victoria
492,AUS,24127159.0,Wangaratta,Wangaratta,-36.36001707,146.3,11369.5,Australia,AU,AUS,Victoria
493,AUS,24127159.0,Windorah,Windorah,-25.43324217,142.6501969,158.0,Australia,AU,AUS,Queensland
494,AUS,24127159.0,Mount Isa,Mount Isa,-20.72386554,139.490028,27596.0,Australia,AU,AUS,Queensland
495,AUS,24127159.0,Rockhampton,Rockhampton,-23.36391111,150.5200008,59024.5,Australia,AU,AUS,Queensland
496,AUS,24127159.0,Cairns,Cairns,-16.88783986,145.7633309,132107.0,Australia,AU,AUS,Queensland
497,AUS,24127159.0,Gold Coast,Gold Coast,-28.08150429,153.4482458,429954.5,Australia,AU,AUS,Queensland
498,AUS,24127159.0,Devonport,Devonport,-41.19266757,146.3311017,17932.5,Australia,AU,AUS,Tasmania
499,AUS,24127159.0,Darwin,Darwin,-12.42535398,130.8500386,82973.0,Australia,AU,AUS,Northern Territory
500,AUS,24127159.0,Alice Springs,Alice Springs,-23.70099648,133.8800345,26949.0,Australia,AU,AUS,Northern Territory
501,AUS,24127159.0,Canberra,Canberra,-35.28302855,149.1290262,280866.0,Australia,AU,AUS,Australian Capital Territory
502,AUS,24127159.0,Newcastle,Newcastle,-32.84534788,151.8150122,816285.5,Australia,AU,AUS,New South Wales
503,AUS,24127159.0,Adelaide,Adelaide,-34.93498777,138.6000048,990677.0,Australia,AU,AUS,South Australia
504,AUS,24127159.0,Townsville,Townsville,-19.24995034,146.7699971,129212.0,Australia,AU,AUS,Queensland
505,AUS,24127159.0,Brisbane,Brisbane,-27.45503091,153.0350927,1393176.5,Australia,AU,AUS,Queensland
506,AUS,24127159.0,Hobart,Hobart,-42.85000853,147.2950297,64285.0,Australia,AU,AUS,Tasmania
507,AUS,24127159.0,Perth,Perth,-31.95501463,115.8399987,1206108.0,Australia,AU,AUS,Western Australia
508,AUS,24127159.0,Melbourne,Melbourne,-37.82003131,144.9750162,2131812.5,Australia,AU,AUS,Victoria
509,AUS,24127159.0,Sydney,Sydney,-33.92001097,151.1851798,4135711.0,Australia,AU,AUS,New South Wales
510,AUT,8747358.0,Bregenz,Bregenz,47.51669707,9.766701588,26928.0,Austria,AT,AUT,Vorarlberg
511,AUT,8747358.0,Eisenstadt,Eisenstadt,47.83329908,16.53329747,13165.0,Austria,AT,AUT,Burgenland
512,AUT,8747358.0,Wiener Neustadt,Wiener Neustadt,47.81598187,16.24995357,60621.5,Austria,AT,AUT,Niederösterreich
513,AUT,8747358.0,Graz,Graz,47.0777582,15.41000484,242780.0,Austria,AT,AUT,Steiermark
514,AUT,8747358.0,Klagenfurt,Klagenfurt,46.62034426,14.3100203,88588.0,Austria,AT,AUT,Kärnten
515,AUT,8747358.0,Linz,Linz,48.31923281,14.28878129,265161.5,Austria,AT,AUT,Oberösterreich
516,AUT,8747358.0,Passau,Passau,48.56704714,13.46660925,50000.0,Austria,AT,AUT,Oberösterreich
517,AUT,8747358.0,Salzburg,Salzburg,47.81047833,13.0400203,178274.0,Austria,AT,AUT,Salzburg
518,AUT,8747358.0,Innsbruck,Innsbruck,47.28040733,11.4099906,133840.5,Austria,AT,AUT,Tirol
519,AUT,8747358.0,Vienna,Vienna,48.20001528,16.36663896,2065500.0,Austria,AT,AUT,Wien
520,AZE,9762274.0,Gadabay,Gadabay,40.5655556,45.8161111,8657.0,Azerbaijan,AZ,AZE,Gadabay
521,AZE,9762274.0,Goranboy,Goranboy,40.6102778,46.7897222,7333.0,Azerbaijan,AZ,AZE,Goranboy
522,AZE,9762274.0,Tovuz,Tovuz,40.9922222,45.6288889,12626.0,Azerbaijan,AZ,AZE,Tovuz
523,AZE,9762274.0,Agdam,Agdam,40.9052778,45.5563889,0.0,Azerbaijan,AZ,AZE,Tovuz
524,AZE,9762274.0,Qabala,Qabala,40.9813889,47.8458333,11867.0,Azerbaijan,AZ,AZE,Qabala
525,AZE,9762274.0,Oguz,Oguz,41.0708333,47.4583333,6876.0,Azerbaijan,AZ,AZE,Oguz
526,AZE,9762274.0,Ganca,Ganca,40.68499595,46.35002844,301699.5,Azerbaijan,AZ,AZE,Ganca
527,AZE,9762274.0,Yevlax,Yevlax,40.61719647,47.15003129,50014.0,Azerbaijan,AZ,AZE,Yevlax
528,AZE,9762274.0,Sumqayt,Sumqayt,40.58001528,49.62998328,272154.5,Azerbaijan,AZ,AZE,Sumqayit
529,AZE,9762274.0,Ali Bayramli,Ali Bayramli,39.93230288,48.92025915,70452.0,Azerbaijan,AZ,AZE,?li Bayramli
530,AZE,9762274.0,Goycay,Goycay,40.65342165,47.74058956,35031.5,Azerbaijan,AZ,AZE,Göyçay
531,AZE,9762274.0,Lankaran,Lankaran,38.7540027,48.85106441,60180.0,Azerbaijan,AZ,AZE,Astara
532,AZE,9762274.0,Saki,Saki,41.19232932,47.17054683,63579.5,Azerbaijan,AZ,AZE,S?ki
533,AZE,9762274.0,Stepanakert,Stepanakert,39.81564333,46.75196773,57473.0,Azerbaijan,AZ,AZE,Xocali
534,AZE,9762274.0,Kapan,Kapan,39.20152061,46.41498572,37724.0,Azerbaijan,AZ,AZE,Z?ngilan
535,AZE,9762274.0,Naxcivan,Naxcivan,39.2092204,45.41220455,79771.0,Azerbaijan,AZ,AZE,Naxçivan
536,AZE,9762274.0,Baku,Baku,40.39527203,49.86221716,2007150.0,Azerbaijan,AZ,AZE,Baki
537,BDI,10524117.0,Cankuzo,Cankuzo,-3.166703921,30.51669662,6585.0,Burundi,BI,BDI,Cankuzo
538,BDI,10524117.0,Karusi,Karusi,-3.099995968,30.16299648,10705.0,Burundi,BI,BDI,Karuzi
539,BDI,10524117.0,Rutana,Rutana,-3.93100195,29.99300455,20893.0,Burundi,BI,BDI,Rutana
540,BDI,10524117.0,Ruyigi,Ruyigi,-3.481001905,30.2439966,38458.0,Burundi,BI,BDI,Ruyigi
541,BDI,10524117.0,Bubanza,Bubanza,-3.083300984,29.36670351,12728.0,Burundi,BI,BDI,Bubanza
542,BDI,10524117.0,Kayanza,Kayanza,-2.899997879,29.5667016,19443.0,Burundi,BI,BDI,Kayanza
543,BDI,10524117.0,Makamba,Makamba,-4.133303903,29.79999964,19642.0,Burundi,BI,BDI,Makamba
544,BDI,10524117.0,Ngozi,Ngozi,-2.912003884,29.82500157,21506.0,Burundi,BI,BDI,Ngozi
545,BDI,10524117.0,Kirundo,Kirundo,-2.5847222,30.0972222,6083.0,Burundi,BI,BDI,Kirundo
546,BDI,10524117.0,Muramvya,Muramvya,-3.260997006,29.61199862,18041.0,Burundi,BI,BDI,Muramvya
547,BDI,10524117.0,Bururi,Bururi,-3.950729147,29.61657955,20066.5,Burundi,BI,BDI,Bururi
548,BDI,10524117.0,Muyinga,Muyinga,-2.852346579,30.31726029,71076.0,Burundi,BI,BDI,Muyinga
549,BDI,10524117.0,Gitega,Gitega,-3.426006654,29.84359411,23167.0,Burundi,BI,BDI,Muramvya
550,BDI,10524117.0,Bujumbura,Bujumbura,-3.37608722,29.36000606,331700.0,Burundi,BI,BDI,Bujumbura Mairie
551,BEL,11348159.0,Mons,Mons,50.44599911,3.939003561,91277.0,Belgium,BE,BEL,Hainaut
552,BEL,11348159.0,Hasselt,Hasselt,50.96400317,5.483997561,69222.0,Belgium,BE,BEL,Limburg
553,BEL,11348159.0,Arlon,Arlon,49.68330313,5.816700472,26179.0,Belgium,BE,BEL,Arlon
554,BEL,11348159.0,Gent,Gent,51.02999758,3.700021931,337914.5,Belgium,BE,BEL,East Flanders
555,BEL,11348159.0,Liege,Liege,50.62999615,5.580010537,472803.0,Belgium,BE,BEL,Liege
556,BEL,11348159.0,Brugge,Brugge,51.22037355,3.230024779,131589.0,Belgium,BE,BEL,Brugge
557,BEL,11348159.0,Namur,Namur,50.47039349,4.870028034,97155.5,Belgium,BE,BEL,Namur
558,BEL,11348159.0,Charleroi,Charleroi,50.42039654,4.450001992,272749.5,Belgium,BE,BEL,Charleroi
559,BEL,11348159.0,Antwerpen,Antwerpen,51.22037355,4.415017048,689902.5,Belgium,BE,BEL,Antwerp
560,BEL,11348159.0,Brussels,Brussels,50.83331708,4.333316608,1381011.0,Belgium,BE,BEL,Brussels
561,BEN,10872298.0,Lokossa,Lokossa,6.615000092,1.715004457,86971.0,Benin,BJ,BEN,Mono
562,BEN,10872298.0,Kandi,Kandi,11.13036582,2.940016641,73483.0,Benin,BJ,BEN,Alibori
563,BEN,10872298.0,Ouidah,Ouidah,6.360372741,2.089991006,83503.0,Benin,BJ,BEN,Atlantique
564,BEN,10872298.0,Abomey,Abomey,7.190399596,1.98999711,82154.0,Benin,BJ,BEN,Zou
565,BEN,10872298.0,Natitingou,Natitingou,10.32041526,1.389982054,65356.5,Benin,BJ,BEN,Atakora
566,BEN,10872298.0,Djougou,Djougou,9.700427265,1.680041869,152708.5,Benin,BJ,BEN,Donga
567,BEN,10872298.0,Parakou,Parakou,9.340009988,2.620036172,176303.0,Benin,BJ,BEN,Borgou
568,BEN,10872298.0,Porto-Novo,Porto-Novo,6.483310973,2.616625528,267084.0,Benin,BJ,BEN,Ouémé
569,BEN,10872298.0,Cotonou,Cotonou,6.400008564,2.519990599,726292.0,Benin,BJ,BEN,Ouémé
570,BFA,18646433.0,Fada Ngourma,Fada Ngourma,12.05499605,0.360999451,33910.0,Burkina Faso,BF,BFA,Gourma
571,BFA,18646433.0,Orodara,Orodara,10.97399705,-4.907996452,18632.0,Burkina Faso,BF,BFA,Kénédougou
572,BFA,18646433.0,Solenzo,Solenzo,12.1833333,-4.0833333,10385.0,Burkina Faso,BF,BFA,Banwa
573,BFA,18646433.0,Nouna,Nouna,12.7289971,-3.860000519,29048.0,Burkina Faso,BF,BFA,Kossi
574,BFA,18646433.0,Dedougou,Dedougou,12.455001,-3.464000439,45341.0,Burkina Faso,BF,BFA,Mou Houn
575,BFA,18646433.0,Gorom Gorom,Gorom Gorom,14.45000398,-0.233297546,6691.0,Burkina Faso,BF,BFA,Oudalan
576,BFA,18646433.0,Djibo,Djibo,14.09900404,-1.627001421,22223.0,Burkina Faso,BF,BFA,Soum
577,BFA,18646433.0,Tougan,Tougan,13.06899899,-3.069998409,17590.0,Burkina Faso,BF,BFA,Sourou
578,BFA,18646433.0,Kombissiri,Kombissiri,12.06399605,-1.333997543,30137.0,Burkina Faso,BF,BFA,Bazéga
579,BFA,18646433.0,Ziniare,Ziniare,12.57699605,-1.293002442,12703.0,Burkina Faso,BF,BFA,Oubritenga
580,BFA,18646433.0,Yako,Yako,12.95399712,-2.262995501,22904.0,Burkina Faso,BF,BFA,Passoré
581,BFA,18646433.0,Reo,Reo,12.33349214,-2.466944513,37535.0,Burkina Faso,BF,BFA,Sanguié
582,BFA,18646433.0,Leo,Leo,11.09400299,-2.097998529,26884.0,Burkina Faso,BF,BFA,Sissili
583,BFA,18646433.0,Sapouy,Sapouy,11.5544444,-1.7736111,3837.0,Burkina Faso,BF,BFA,Ziro
584,BFA,18646433.0,Boulsa,Boulsa,12.65699714,-0.568997532,17489.0,Burkina Faso,BF,BFA,Namentenga
585,BFA,18646433.0,Zorgo,Zorgo,12.24299707,-0.611000429,23892.0,Burkina Faso,BF,BFA,Ganzourgou
586,BFA,18646433.0,Koupela,Koupela,12.17700004,-0.356003514,32052.0,Burkina Faso,BF,BFA,Kouritenga
587,BFA,18646433.0,Po,Po,11.16900002,-1.134998478,17924.0,Burkina Faso,BF,BFA,Nahouri
588,BFA,18646433.0,Manga,Manga,11.66200198,-1.064996408,15173.0,Burkina Faso,BF,BFA,Zoundwéogo
589,BFA,18646433.0,Diebougou,Diebougou,10.95200113,-3.248000411,12732.0,Burkina Faso,BF,BFA,Bougouriba
590,BFA,18646433.0,Gaoua,Gaoua,10.32499811,-3.174002407,28023.0,Burkina Faso,BF,BFA,Poni
591,BFA,18646433.0,Bogande,Bogande,12.96900003,-0.1379965,9854.0,Burkina Faso,BF,BFA,Gnagna
592,BFA,18646433.0,Dori,Dori,14.0339971,-0.027998519,37806.0,Burkina Faso,BF,BFA,Séno
593,BFA,18646433.0,Sebba,Sebba,13.4364122,0.530443,3273.0,Burkina Faso,BF,BFA,Yagha
594,BFA,18646433.0,Diapaga,Diapaga,12.07700108,1.796004571,26013.0,Burkina Faso,BF,BFA,Tapoa
595,BFA,18646433.0,Koudougou,Koudougou,12.25047833,-2.369995159,85339.0,Burkina Faso,BF,BFA,Boulkiemdé
596,BFA,18646433.0,Ouahigouya,Ouahigouya,13.5704236,-2.419992108,70300.0,Burkina Faso,BF,BFA,Yatenga
597,BFA,18646433.0,Kaya,Kaya,13.09037539,-1.090047446,39623.0,Burkina Faso,BF,BFA,Sanmatenga
598,BFA,18646433.0,Tenkodogo,Tenkodogo,11.78040367,-0.369703818,37883.0,Burkina Faso,BF,BFA,Boulgou
599,BFA,18646433.0,Banfora,Banfora,10.63044802,-4.760004315,45903.5,Burkina Faso,BF,BFA,Komoé
600,BFA,18646433.0,Bobo Dioulasso,Bobo Dioulasso,11.1799752,-4.289981325,346035.0,Burkina Faso,BF,BFA,Houet
601,BFA,18646433.0,Ouagadougou,Ouagadougou,12.37031598,-1.524723756,992228.5,Burkina Faso,BF,BFA,Kadiogo
602,BGD,162951560.0,Tangail,Tangail,24.24997845,89.92003048,180144.0,Bangladesh,BD,BGD,Dhaka
603,BGD,162951560.0,Sylhet,Sylhet,24.90355613,91.87360632,237000.0,Bangladesh,BD,BGD,Sylhet
604,BGD,162951560.0,Mymensingh,Mymensingh,24.75041302,90.3800024,330126.0,Bangladesh,BD,BGD,Dhaka
605,BGD,162951560.0,Jamalpur,Jamalpur,24.90042971,89.95000281,167900.0,Bangladesh,BD,BGD,Dhaka
606,BGD,162951560.0,Narayanganj,Narayanganj,23.62040448,90.49999508,223622.0,Bangladesh,BD,BGD,Dhaka
607,BGD,162951560.0,Jessore,Jessore,23.17043194,89.19997107,243987.0,Bangladesh,BD,BGD,Khulna
608,BGD,162951560.0,Barisal,Barisal,22.70040895,90.37498979,202242.0,Bangladesh,BD,BGD,Barisal
609,BGD,162951560.0,Comilla,Comilla,23.47041363,91.16998002,389411.0,Bangladesh,BD,BGD,Chittagong
610,BGD,162951560.0,Pabna,Pabna,24.00038129,89.24999385,137888.0,Bangladesh,BD,BGD,Rajshahi
611,BGD,162951560.0,Nawabganj,Nawabganj,24.58039756,88.34999711,142361.0,Bangladesh,BD,BGD,Rajshahi
612,BGD,162951560.0,Saidpur,Saidpur,25.80042645,88.99998328,232209.0,Bangladesh,BD,BGD,Rajshahi
613,BGD,162951560.0,Rangpur,Rangpur,25.75001609,89.28001786,285564.0,Bangladesh,BD,BGD,Rajshahi
614,BGD,162951560.0,Khulna,Khulna,22.839987,89.56000077,1447669.5,Bangladesh,BD,BGD,Khulna
615,BGD,162951560.0,Rajshahi,Rajshahi,24.37498374,88.6050203,755066.5,Bangladesh,BD,BGD,Rajshahi
616,BGD,162951560.0,Dhaka,Dhaka,23.72305971,90.40857947,9899167.0,Bangladesh,BD,BGD,Dhaka
617,BGD,162951560.0,Chittagong,Chittagong,22.32999229,91.79996741,4224611.0,Bangladesh,BD,BGD,Chittagong
618,BGR,7127822.0,Lovec,Lovec,43.13799911,24.71900459,42211.0,Bulgaria,BG,BGR,Lovech
619,BGR,7127822.0,Montana,Montana,43.41400203,23.23700161,47445.0,Bulgaria,BG,BGR,Montana
620,BGR,7127822.0,Razgrad,Razgrad,43.53399903,26.53599663,38285.0,Bulgaria,BG,BGR,Razgrad
621,BGR,7127822.0,Sliven,Sliven,42.67937034,26.33001013,87346.5,Bulgaria,BG,BGR,Sliven
622,BGR,7127822.0,Plovdiv,Plovdiv,42.15397605,24.7539823,319089.5,Bulgaria,BG,BGR,Plovdiv
623,BGR,7127822.0,Pernik,Pernik,42.60999473,23.02271846,80625.0,Bulgaria,BG,BGR,Pernik
624,BGR,7127822.0,Vratsa,Vratsa,43.20998395,23.56253048,68287.0,Bulgaria,BG,BGR,Vratsa
625,BGR,7127822.0,Shumen,Shumen,43.27000612,26.92935339,75487.5,Bulgaria,BG,BGR,Shumen
626,BGR,7127822.0,Khaskovo,Khaskovo,41.94378216,25.5632869,72805.0,Bulgaria,BG,BGR,Haskovo
627,BGR,7127822.0,Stara Zagora,Stara Zagora,42.42313275,25.6227148,128315.5,Bulgaria,BG,BGR,Stara Zagora
628,BGR,7127822.0,Pleven,Pleven,43.42376935,24.61337073,110445.5,Bulgaria,BG,BGR,Pleven
629,BGR,7127822.0,Turnovo,Turnovo,43.08624473,25.65552934,53115.0,Bulgaria,BG,BGR,Veliko Tarnovo
630,BGR,7127822.0,Kyustendil,Kyustendil,42.28427818,22.6911108,49676.5,Bulgaria,BG,BGR,Kyustendil
631,BGR,7127822.0,Dobrich,Dobrich,43.58505149,27.83999548,73813.0,Bulgaria,BG,BGR,Dobrich
632,BGR,7127822.0,Varna,Varna,43.21564252,27.89528926,245522.0,Bulgaria,BG,BGR,Varna
633,BGR,7127822.0,Ruse,Ruse,43.85369143,25.97333939,170254.0,Bulgaria,BG,BGR,Ruse
634,BGR,7127822.0,Burgas,Burgas,42.51460004,27.47464311,174254.0,Bulgaria,BG,BGR,Burgas
635,BGR,7127822.0,Sofia,Sofia,42.68334943,23.31665401,1029913.5,Bulgaria,BG,BGR,Grad Sofiya
636,BHR,1425171.0,Manama,Manama,26.23613629,50.58305172,360697.0,Bahrain,BH,BHR,
637,BHS,391232.0,Freeport,Freeport,26.53327578,-78.70001306,25383.0,The Bahamas,BS,BHS,
638,BHS,391232.0,Nassau,Nassau,25.08339012,-77.35004378,194453.0,The Bahamas,BS,BHS,
639,BIH,3516816.0,Zenica,Zenica,44.21997398,17.91998083,151388.0,Bosnia and Herzegovina,BA,BIH,Zenica-Doboj
640,BIH,3516816.0,Mostar,Mostar,43.35049217,17.82003861,133792.5,Bosnia and Herzegovina,BA,BIH,Herzegovina-Neretva
641,BIH,3516816.0,Tuzla,Tuzla,44.5504706,18.6800378,143410.0,Bosnia and Herzegovina,BA,BIH,Tuzla
642,BIH,3516816.0,Prijedor,Prijedor,44.98039268,16.70000362,70602.5,Bosnia and Herzegovina,BA,BIH,Serbian Republic
643,BIH,3516816.0,Banja Luka,Banja Luka,44.78040489,17.17997432,221422.0,Bosnia and Herzegovina,BA,BIH,Serbian Republic
644,BIH,3516816.0,Sarajevo,Sarajevo,43.8500224,18.38300167,662816.5,Bosnia and Herzegovina,BA,BIH,Sarajevo
645,BLR,9507120.0,Baranavichy,Baranavichy,53.13684572,26.01344031,156514.5,Belarus,BY,BLR,Brest
646,BLR,9507120.0,Polatsk,Polatsk,55.48938946,28.78598425,79216.0,Belarus,BY,BLR,Vitsyebsk
647,BLR,9507120.0,Maladzyechna,Maladzyechna,54.31878908,26.86532629,96055.0,Belarus,BY,BLR,Minsk
648,BLR,9507120.0,Pinsk,Pinsk,52.12786338,26.09405554,120838.5,Belarus,BY,BLR,Brest
649,BLR,9507120.0,Mazyr,Mazyr,52.04595624,29.27215613,100936.0,Belarus,BY,BLR,Homyel'
650,BLR,9507120.0,Mahilyow,Mahilyow,53.89850466,30.32465002,343527.0,Belarus,BY,BLR,Mahilyow
651,BLR,9507120.0,Babruysk,Babruysk,53.12656211,29.19278113,212821.5,Belarus,BY,BLR,Mahilyow
652,BLR,9507120.0,Orsha,Orsha,54.51531455,30.42154333,130276.5,Belarus,BY,BLR,Vitsyebsk
653,BLR,9507120.0,Lida,Lida,53.88847943,25.28464758,99126.0,Belarus,BY,BLR,Hrodna
654,BLR,9507120.0,Hrodna,Hrodna,53.67787213,23.83409013,285867.0,Belarus,BY,BLR,Hrodna
655,BLR,9507120.0,Barysaw,Barysaw,54.22600405,28.49215206,127694.5,Belarus,BY,BLR,Minsk
656,BLR,9507120.0,Homyel,Homyel,52.43001548,31.00000932,472337.5,Belarus,BY,BLR,Homyel'
657,BLR,9507120.0,Vitsyebsk,Vitsyebsk,55.18871014,30.18533036,333318.5,Belarus,BY,BLR,Vitsyebsk
658,BLR,9507120.0,Brest,Brest,52.09998395,23.69998979,266775.0,Belarus,BY,BLR,Brest
659,BLR,9507120.0,Minsk,Minsk,53.89997744,27.56662716,1691069.0,Belarus,BY,BLR,Minsk
660,BLZ,366954.0,El Cayo,El Cayo,17.15599807,-89.06100252,13451.0,Belize,BZ,BLZ,Cayo
661,BLZ,366954.0,Corozal,Corozal,18.39799811,-88.3880005,8724.0,Belize,BZ,BLZ,Corozal
662,BLZ,366954.0,Dangriga,Dangriga,16.97003522,-88.22000045,8506.0,Belize,BZ,BLZ,Stann Creek
663,BLZ,366954.0,Belize City,Belize City,17.49871096,-88.18837447,62244.5,Belize,BZ,BLZ,Belize
664,BLZ,366954.0,Orange Walk,Orange Walk,18.09043194,-88.5599797,18066.5,Belize,BZ,BLZ,Orange Walk
665,BLZ,366954.0,Punta Gorda,Punta Gorda,16.1003467,-88.81001612,6387.0,Belize,BZ,BLZ,Toledo
666,BLZ,366954.0,Belmopan,Belmopan,17.25203351,-88.767073,14300.5,Belize,BZ,BLZ,Cayo
667,BMU,65331.0,Hamilton,Hamilton,32.29419029,-64.78393742,32910.0,Bermuda,BM,BMU,
668,BOL,10887882.0,Punata,Punata,-17.55000242,-65.83997115,20758.5,Bolivia,BO,BOL,Cochabamba
669,BOL,10887882.0,Cliza,Cliza,-17.58999998,-65.9299915,12235.0,Bolivia,BO,BOL,Cochabamba
670,BOL,10887882.0,Quillacollo,Quillacollo,-17.39998574,-66.27999597,227052.0,Bolivia,BO,BOL,Cochabamba
671,BOL,10887882.0,Puerto Villarroel,Puerto Villarroel,-16.87004393,-64.78001001,1778.0,Bolivia,BO,BOL,Cochabamba
672,BOL,10887882.0,Tarabuco,Tarabuco,-19.18003213,-64.91994979,2364.0,Bolivia,BO,BOL,Chuquisaca
673,BOL,10887882.0,Guayaramerin,Guayaramerin,-10.82999917,-65.4099974,36008.0,Bolivia,BO,BOL,El Beni
674,BOL,10887882.0,Santa Ana,Santa Ana,-13.7600012,-65.57996118,234478.0,Bolivia,BO,BOL,El Beni
675,BOL,10887882.0,Baures,Baures,-13.58001219,-63.58005742,2422.0,Bolivia,BO,BOL,El Beni
676,BOL,10887882.0,Sica Sica,Sica Sica,-17.33001585,-67.72998499,1006.0,Bolivia,BO,BOL,La Paz
677,BOL,10887882.0,Rurrenabaque,Rurrenabaque,-14.46001015,-67.55999536,11749.0,Bolivia,BO,BOL,La Paz
678,BOL,10887882.0,Sorata,Sorata,-15.79000649,-68.66005742,2190.0,Bolivia,BO,BOL,La Paz
679,BOL,10887882.0,Achacachi,Achacachi,-16.08332192,-68.66656865,8447.0,Bolivia,BO,BOL,La Paz
680,BOL,10887882.0,Viacha,Viacha,-16.65000568,-68.2999502,34776.0,Bolivia,BO,BOL,La Paz
681,BOL,10887882.0,Quime,Quime,-16.98001137,-67.22001612,3224.5,Bolivia,BO,BOL,La Paz
682,BOL,10887882.0,Llallagua,Llallagua,-18.42002684,-66.63999984,28069.0,Bolivia,BO,BOL,Potosí
683,BOL,10887882.0,Uncia,Uncia,-18.46999795,-66.57002995,4723.0,Bolivia,BO,BOL,Potosí
684,BOL,10887882.0,Uyuni,Uyuni,-20.46000568,-66.82998824,11616.0,Bolivia,BO,BOL,Potosí
685,BOL,10887882.0,Villa Martin,Villa Martin,-20.76655027,-67.7833409,10.0,Bolivia,BO,BOL,Potosí
686,BOL,10887882.0,Betanzos,Betanzos,-19.55995726,-65.45002079,4629.5,Bolivia,BO,BOL,Potosí
687,BOL,10887882.0,Portachuelo,Portachuelo,-17.36003986,-63.40001673,9982.0,Bolivia,BO,BOL,Santa Cruz
688,BOL,10887882.0,Samaipata,Samaipata,-18.18004148,-63.77001998,2926.0,Bolivia,BO,BOL,Santa Cruz
689,BOL,10887882.0,Cuevo,Cuevo,-20.45003213,-63.52998295,953.0,Bolivia,BO,BOL,Santa Cruz
690,BOL,10887882.0,San Carlos,San Carlos,-17.39998574,-63.72999658,5266.5,Bolivia,BO,BOL,Santa Cruz
691,BOL,10887882.0,San Lorenzo,San Lorenzo,-21.47994342,-64.77001062,3000.0,Bolivia,BO,BOL,Tarija
692,BOL,10887882.0,Entre Rios,Entre Rios,-21.53001788,-64.18999435,2685.0,Bolivia,BO,BOL,Tarija
693,BOL,10887882.0,Aiquile,Aiquile,-18.18954995,-65.18001144,5844.0,Bolivia,BO,BOL,Cochabamba
694,BOL,10887882.0,Padilla,Padilla,-19.29961139,-64.30996118,2276.5,Bolivia,BO,BOL,Chuquisaca
695,BOL,10887882.0,Camargo,Camargo,-20.63958128,-65.20998377,4715.0,Bolivia,BO,BOL,Chuquisaca
696,BOL,10887882.0,Reyes,Reyes,-14.30958006,-67.37000696,7376.0,Bolivia,BO,BOL,El Beni
697,BOL,10887882.0,San Borja,San Borja,-14.81962645,-66.84996118,19640.0,Bolivia,BO,BOL,El Beni
698,BOL,10887882.0,Magdalena,Magdalena,-13.2600834,-64.05276758,3445.0,Bolivia,BO,BOL,El Beni
699,BOL,10887882.0,San Ramon,San Ramon,-13.28959064,-64.70998845,5439.5,Bolivia,BO,BOL,El Beni
700,BOL,10887882.0,Puerto Heath,Puerto Heath,-12.49961302,-68.66656865,10.0,Bolivia,BO,BOL,La Paz
701,BOL,10887882.0,Charana,Charana,-17.5996118,-69.46659733,197.0,Bolivia,BO,BOL,La Paz
702,BOL,10887882.0,Puerto Acosta,Puerto Acosta,-15.49958494,-69.16666732,1123.0,Bolivia,BO,BOL,La Paz
703,BOL,10887882.0,Apolo,Apolo,-14.71958087,-68.41999455,4189.0,Bolivia,BO,BOL,La Paz
704,BOL,10887882.0,Coroico,Coroico,-16.18962034,-67.72001144,2361.0,Bolivia,BO,BOL,La Paz
705,BOL,10887882.0,Coro Coro,Coro Coro,-17.1696122,-68.44996688,1884.0,Bolivia,BO,BOL,La Paz
706,BOL,10887882.0,Sabaya,Sabaya,-19.01626951,-68.38327844,573.0,Bolivia,BO,BOL,Oruro
707,BOL,10887882.0,Challapata,Challapata,-18.89958413,-66.77999129,8565.0,Bolivia,BO,BOL,Oruro
708,BOL,10887882.0,Llica,Llica,-19.84960366,-68.25003076,553.0,Bolivia,BO,BOL,Potosí
709,BOL,10887882.0,Potosi,Potosi,-19.56956907,-65.75002832,160576.0,Bolivia,BO,BOL,Potosí
710,BOL,10887882.0,Villazon,Villazon,-22.07959674,-65.5999858,33734.0,Bolivia,BO,BOL,Potosí
711,BOL,10887882.0,Tupiza,Tupiza,-21.43958413,-65.72000431,25499.5,Bolivia,BO,BOL,Potosí
712,BOL,10887882.0,Montero,Montero,-17.34960122,-63.26002527,83821.0,Bolivia,BO,BOL,Santa Cruz
713,BOL,10887882.0,Piso Firme,Piso Firme,-13.68295164,-61.86662195,72.0,Bolivia,BO,BOL,Santa Cruz
714,BOL,10887882.0,Robore,Robore,-18.3295414,-59.75998051,9959.0,Bolivia,BO,BOL,Santa Cruz
715,BOL,10887882.0,Puerto Quijarro,Puerto Quijarro,-17.77960081,-57.77002446,10392.0,Bolivia,BO,BOL,Santa Cruz
716,BOL,10887882.0,San Ignacio,San Ignacio,-16.36960936,-60.96001062,24480.0,Bolivia,BO,BOL,Santa Cruz
717,BOL,10887882.0,Ascension,Ascension,-15.69957273,-63.07998458,12085.0,Bolivia,BO,BOL,Santa Cruz
718,BOL,10887882.0,San Javier,San Javier,-16.28961424,-62.50001998,4210.0,Bolivia,BO,BOL,Santa Cruz
719,BOL,10887882.0,San Rafael,San Rafael,-16.77950682,-60.6799502,1201.0,Bolivia,BO,BOL,Santa Cruz
720,BOL,10887882.0,Vallegrande,Vallegrande,-18.48958331,-64.10999923,6857.5,Bolivia,BO,BOL,Santa Cruz
721,BOL,10887882.0,Puerto Suarez,Puerto Suarez,-18.94955524,-57.8499679,17273.0,Bolivia,BO,BOL,Santa Cruz
722,BOL,10887882.0,Charagua,Charagua,-19.79958087,-63.2199502,3025.0,Bolivia,BO,BOL,Santa Cruz
723,BOL,10887882.0,Villamontes,Villamontes,-21.24956989,-63.50001062,18761.0,Bolivia,BO,BOL,Tarija
724,BOL,10887882.0,Bermejo,Bermejo,-22.72958291,-64.34998458,36544.0,Bolivia,BO,BOL,Tarija
725,BOL,10887882.0,Cochabamba,Cochabamba,-17.41001097,-66.16997685,804138.0,Bolivia,BO,BOL,Cochabamba
726,BOL,10887882.0,Oruro,Oruro,-17.97995034,-67.12999577,227592.5,Bolivia,BO,BOL,Oruro
727,BOL,10887882.0,Camiri,Camiri,-20.05000486,-63.51998356,19212.5,Bolivia,BO,BOL,Santa Cruz
728,BOL,10887882.0,Cobija,Cobija,-11.03334593,-68.73330876,35511.0,Bolivia,BO,BOL,Pando
729,BOL,10887882.0,San Matias,San Matias,-16.35999754,-58.42001062,6352.0,Bolivia,BO,BOL,Santa Cruz
730,BOL,10887882.0,San José,San Jose,-17.85003579,-60.77999577,9211.0,Bolivia,BO,BOL,Santa Cruz
731,BOL,10887882.0,Trinidad,Trinidad,-14.83337238,-64.89997685,69333.5,Bolivia,BO,BOL,El Beni
732,BOL,10887882.0,Tarija,Tarija,-21.51668537,-64.749986,155513.0,Bolivia,BO,BOL,Tarija
733,BOL,10887882.0,Sucre,Sucre,-19.04097085,-65.25951563,223287.0,Bolivia,BO,BOL,Chuquisaca
734,BOL,10887882.0,Riberalta,Riberalta,-10.98301308,-66.10000696,74014.0,Bolivia,BO,BOL,El Beni
735,BOL,10887882.0,La Paz,La Paz,-16.49797361,-68.14998519,1201399.5,Bolivia,BO,BOL,La Paz
736,BOL,10887882.0,Santa Cruz,Santa Cruz,-17.75391762,-63.22599634,1859530.5,Bolivia,BO,BOL,Santa Cruz
737,BRA,207652865.0,Grajau,Grajau,-5.809995505,-46.14998438,30217.0,Brazil,BR,BRA,Maranhão
738,BRA,207652865.0,Presidente Dutra,Presidente Dutra,-5.250029685,-44.51998051,30330.0,Brazil,BR,BRA,Maranhão
739,BRA,207652865.0,Itapecuru Mirim,Itapecuru Mirim,-3.400013409,-44.36001611,22347.0,Brazil,BR,BRA,Maranhão
740,BRA,207652865.0,Sao Jose de Ribamar,Sao Jose de Ribamar,-2.549987774,-44.06998214,41521.0,Brazil,BR,BRA,Maranhão
741,BRA,207652865.0,Santa Ines,Santa Ines,-3.659997539,-45.39003076,58511.5,Brazil,BR,BRA,Maranhão
742,BRA,207652865.0,Rosario,Rosario,-2.940041485,-44.26002222,6798.0,Brazil,BR,BRA,Maranhão
743,BRA,207652865.0,Timon,Timon,-5.114999167,-42.84496647,203157.0,Brazil,BR,BRA,Maranhão
744,BRA,207652865.0,Capanema,Capanema,-1.190019105,-47.17999903,45831.0,Brazil,BR,BRA,Pará
745,BRA,207652865.0,Portel,Portel,-1.949972718,-50.81998356,10855.0,Brazil,BR,BRA,Pará
746,BRA,207652865.0,Itupiranga,Itupiranga,-5.120011781,-49.30002466,21301.0,Brazil,BR,BRA,Pará
747,BRA,207652865.0,Pimenta Bueno,Pimenta Bueno,-11.64002724,-61.20999536,25762.0,Brazil,BR,BRA,Rondônia
748,BRA,207652865.0,Ponta Pora,Ponta Pora,-22.53000853,-55.7299681,75047.0,Brazil,BR,BRA,Mato Grosso do Sul
749,BRA,207652865.0,Maracaju,Maracaju,-21.610013,-55.18002751,18156.0,Brazil,BR,BRA,Mato Grosso do Sul
750,BRA,207652865.0,Jardim,Jardim,-21.47994342,-56.15001998,21252.5,Brazil,BR,BRA,Mato Grosso do Sul
751,BRA,207652865.0,Tres Lagoas,Tres Lagoas,-20.79001137,-51.72000615,64217.5,Brazil,BR,BRA,Mato Grosso do Sul
752,BRA,207652865.0,Guanhaes,Guanhaes,-18.78000486,-42.95002466,16761.5,Brazil,BR,BRA,Minas Gerais
753,BRA,207652865.0,Leopoldina,Leopoldina,-21.53001788,-42.64004358,37412.0,Brazil,BR,BRA,Minas Gerais
754,BRA,207652865.0,Nova Lima,Nova Lima,-19.98003497,-43.8500214,60413.5,Brazil,BR,BRA,Minas Gerais
755,BRA,207652865.0,Pouso Alegre,Pouso Alegre,-22.22000161,-45.94002303,102517.5,Brazil,BR,BRA,Minas Gerais
756,BRA,207652865.0,Itauna,Itauna,-20.06003009,-44.57002914,70233.0,Brazil,BR,BRA,Minas Gerais
757,BRA,207652865.0,Caratinga,Caratinga,-19.79002073,-42.13999658,47517.5,Brazil,BR,BRA,Minas Gerais
758,BRA,207652865.0,Diamantina,Diamantina,-18.23998615,-43.60998438,25184.5,Brazil,BR,BRA,Minas Gerais
759,BRA,207652865.0,Nanuque,Nanuque,-17.83995888,-40.35002832,27210.5,Brazil,BR,BRA,Minas Gerais
760,BRA,207652865.0,Barbacena,Barbacena,-21.22001097,-43.77000045,101628.5,Brazil,BR,BRA,Minas Gerais
761,BRA,207652865.0,Pocos de Caldas,Pocos de Caldas,-21.78002846,-46.56998458,125498.5,Brazil,BR,BRA,Minas Gerais
762,BRA,207652865.0,Guaxupe,Guaxupe,-21.29003253,-46.7099502,43379.5,Brazil,BR,BRA,Minas Gerais
763,BRA,207652865.0,Sao Joao del Rei,Sao Joao del Rei,-21.1300423,-44.24999699,68731.5,Brazil,BR,BRA,Minas Gerais
764,BRA,207652865.0,Muriae,Muriae,-21.1300423,-42.38998132,76728.5,Brazil,BR,BRA,Minas Gerais
765,BRA,207652865.0,Passos,Passos,-20.71001626,-46.60998214,85136.5,Brazil,BR,BRA,Minas Gerais
766,BRA,207652865.0,Conselheiro Lafaiete,Conselheiro Lafaiete,-20.6700187,-43.78999923,102926.0,Brazil,BR,BRA,Minas Gerais
767,BRA,207652865.0,Formiga,Formiga,-20.46000568,-45.43002832,46076.5,Brazil,BR,BRA,Minas Gerais
768,BRA,207652865.0,Frutal,Frutal,-20.03000608,-48.94002079,26797.0,Brazil,BR,BRA,Minas Gerais
769,BRA,207652865.0,Iturama,Iturama,-19.72997272,-50.2000214,21048.5,Brazil,BR,BRA,Minas Gerais
770,BRA,207652865.0,Ituiutaba,Ituiutaba,-18.97001911,-49.45998906,63978.0,Brazil,BR,BRA,Minas Gerais
771,BRA,207652865.0,Araguari,Araguari,-18.64001341,-48.19998845,79910.5,Brazil,BR,BRA,Minas Gerais
772,BRA,207652865.0,Almenara,Almenara,-16.17003497,-40.70000696,22173.5,Brazil,BR,BRA,Minas Gerais
773,BRA,207652865.0,Varzea Grande,Varzea Grande,-15.65001504,-56.14002059,242088.0,Brazil,BR,BRA,Mato Grosso
774,BRA,207652865.0,Cáceres,Caceres,-16.0500423,-57.51001449,85274.0,Brazil,BR,BRA,Mato Grosso
775,BRA,207652865.0,Santana do Livramento,Santana do Livramento,-30.88004148,-55.53000615,87312.0,Brazil,BR,BRA,Rio Grande do Sul
776,BRA,207652865.0,Canoas,Canoas,-29.91999673,-51.17998743,466661.0,Brazil,BR,BRA,Rio Grande do Sul
777,BRA,207652865.0,Quarai,Quarai,-30.38002033,-56.45994938,18462.0,Brazil,BR,BRA,Rio Grande do Sul
778,BRA,207652865.0,Santa Vitoria do Palmar,Santa Vitoria do Palmar,-33.52003538,-53.36998295,21826.0,Brazil,BR,BRA,Rio Grande do Sul
779,BRA,207652865.0,Sao Lourenco do Sul,Sao Lourenco do Sul,-31.36998574,-51.98001611,21673.0,Brazil,BR,BRA,Rio Grande do Sul
780,BRA,207652865.0,Canela,Canela,-29.36003091,-50.81001001,47167.0,Brazil,BR,BRA,Rio Grande do Sul
781,BRA,207652865.0,Sao Gabriel,Sao Gabriel,-30.32002399,-54.32002832,41849.5,Brazil,BR,BRA,Rio Grande do Sul
782,BRA,207652865.0,Rosario do Sul,Rosario do Sul,-30.25000242,-54.92001754,28596.5,Brazil,BR,BRA,Rio Grande do Sul
783,BRA,207652865.0,Cachoeira do Sul,Cachoeira do Sul,-30.02996417,-52.90998519,61871.0,Brazil,BR,BRA,Rio Grande do Sul
784,BRA,207652865.0,Osorio,Osorio,-29.87999917,-50.26999129,30882.0,Brazil,BR,BRA,Rio Grande do Sul
785,BRA,207652865.0,Santa Cruz do Sul,Santa Cruz do Sul,-29.71003538,-52.44003972,109869.0,Brazil,BR,BRA,Rio Grande do Sul
786,BRA,207652865.0,Sao Luiz Gonzaga,Sao Luiz Gonzaga,-28.41001137,-54.95998926,27798.5,Brazil,BR,BRA,Rio Grande do Sul
787,BRA,207652865.0,Santo Angelo,Santo Angelo,-28.30004393,-54.28003076,65013.0,Brazil,BR,BRA,Rio Grande do Sul
788,BRA,207652865.0,Carazinho,Carazinho,-28.2900187,-52.80004358,49145.0,Brazil,BR,BRA,Rio Grande do Sul
789,BRA,207652865.0,Erechim,Erechim,-27.63000731,-52.26999841,85365.5,Brazil,BR,BRA,Rio Grande do Sul
790,BRA,207652865.0,Guaira,Guaira,-24.08996499,-54.2699797,28897.5,Brazil,BR,BRA,Paraná
791,BRA,207652865.0,Palmas,Palmas,-26.47999998,-51.99998906,29794.5,Brazil,BR,BRA,Paraná
792,BRA,207652865.0,Arapongas,Arapongas,-23.41000649,-51.43004968,91203.5,Brazil,BR,BRA,Paraná
793,BRA,207652865.0,Paranagua,Paranagua,-25.52787556,-48.53445345,135071.0,Brazil,BR,BRA,Paraná
794,BRA,207652865.0,Sao Jose dos Pinhais,Sao Jose dos Pinhais,-25.57002968,-49.18000615,472180.0,Brazil,BR,BRA,Paraná
795,BRA,207652865.0,Guarapuava,Guarapuava,-25.38001544,-51.48002079,123381.5,Brazil,BR,BRA,Paraná
796,BRA,207652865.0,Rio Negro,Rio Negro,-26.10002317,-49.79002059,44301.5,Brazil,BR,BRA,Paraná
797,BRA,207652865.0,Apucarana,Apucarana,-23.54999795,-51.4700214,102577.0,Brazil,BR,BRA,Paraná
798,BRA,207652865.0,Lapa,Lapa,-25.76004393,-49.72999841,19934.5,Brazil,BR,BRA,Paraná
799,BRA,207652865.0,Irati,Irati,-25.47003579,-50.65996749,41602.0,Brazil,BR,BRA,Paraná
800,BRA,207652865.0,Castro,Castro,-24.79002562,-50.00998132,38417.5,Brazil,BR,BRA,Paraná
801,BRA,207652865.0,Telemaco Borba,Telemaco Borba,-24.32995034,-50.61999577,53793.5,Brazil,BR,BRA,Paraná
802,BRA,207652865.0,Jacarezinho,Jacarezinho,-23.15994424,-49.97998316,33551.0,Brazil,BR,BRA,Paraná
803,BRA,207652865.0,Concordia,Concordia,-27.23003172,-52.03001306,46124.5,Brazil,BR,BRA,Santa Catarina
804,BRA,207652865.0,Blumenau,Blumenau,-26.9200248,-49.0899858,286326.0,Brazil,BR,BRA,Santa Catarina
805,BRA,207652865.0,Brusque,Brusque,-27.12998615,-48.9300214,81163.5,Brazil,BR,BRA,Santa Catarina
806,BRA,207652865.0,Ararangua,Ararangua,-28.94000486,-49.49998661,42198.5,Brazil,BR,BRA,Santa Catarina
807,BRA,207652865.0,Jaragua do Sul,Jaragua do Sul,-26.47999998,-49.09998519,128803.5,Brazil,BR,BRA,Santa Catarina
808,BRA,207652865.0,Tubarao,Tubarao,-28.48003294,-49.02001591,79760.0,Brazil,BR,BRA,Santa Catarina
809,BRA,207652865.0,Laguna,Laguna,-28.48003294,-48.77997888,32532.0,Brazil,BR,BRA,Santa Catarina
810,BRA,207652865.0,Joacaba,Joacaba,-27.17003538,-51.4999679,31196.0,Brazil,BR,BRA,Santa Catarina
811,BRA,207652865.0,Cacador,Cacador,-26.77000812,-51.02002303,57155.5,Brazil,BR,BRA,Santa Catarina
812,BRA,207652865.0,Canoinhas,Canoinhas,-26.17996662,-50.4000092,40180.0,Brazil,BR,BRA,Santa Catarina
813,BRA,207652865.0,Camocim,Camocim,-2.89999225,-40.85002364,27794.5,Brazil,BR,BRA,Ceará
814,BRA,207652865.0,Russas,Russas,-4.940022767,-37.97999211,33613.5,Brazil,BR,BRA,Ceará
815,BRA,207652865.0,Sobral,Sobral,-3.690021547,-40.35002832,148439.5,Brazil,BR,BRA,Ceará
816,BRA,207652865.0,Iguatu,Iguatu,-6.359987774,-39.29998906,56638.0,Brazil,BR,BRA,Ceará
817,BRA,207652865.0,Quixada,Quixada,-4.969995098,-39.02000615,30723.5,Brazil,BR,BRA,Ceará
818,BRA,207652865.0,Caninde,Caninde,-4.35003294,-39.30998845,32085.0,Brazil,BR,BRA,Ceará
819,BRA,207652865.0,Campo Maior,Campo Maior,-4.820030091,-42.18001998,24089.5,Brazil,BR,BRA,Piauí
820,BRA,207652865.0,Barras,Barras,-4.250039043,-42.29998682,11951.5,Brazil,BR,BRA,Piauí
821,BRA,207652865.0,Rio Largo,Rio Largo,-9.48000405,-35.83996769,110966.0,Brazil,BR,BRA,Alagoas
822,BRA,207652865.0,Palmeira dos Indios,Palmeira dos Indios,-9.416597067,-36.61663863,41095.0,Brazil,BR,BRA,Alagoas
823,BRA,207652865.0,Santa Cruz Cabralia,Santa Cruz Cabralia,-16.28000242,-39.0299797,9980.5,Brazil,BR,BRA,Bahia
824,BRA,207652865.0,Paulo Afonso,Paulo Afonso,-9.330659161,-38.26565943,85350.0,Brazil,BR,BRA,Bahia
825,BRA,207652865.0,Brumado,Brumado,-14.20999957,-41.67002527,29300.0,Brazil,BR,BRA,Bahia
826,BRA,207652865.0,Jaguaquara,Jaguaquara,-13.5299894,-39.96999984,30554.5,Brazil,BR,BRA,Bahia
827,BRA,207652865.0,Itapetinga,Itapetinga,-15.24998777,-40.24998275,43224.0,Brazil,BR,BRA,Bahia
828,BRA,207652865.0,Ubaitaba,Ubaitaba,-14.30001992,-39.33001306,27411.5,Brazil,BR,BRA,Bahia
829,BRA,207652865.0,Cachoeiro de Itapemirim,Cachoeiro de Itapemirim,-20.85000771,-41.12998071,174808.5,Brazil,BR,BRA,Espírito Santo
830,BRA,207652865.0,Barra Mansa,Barra Mansa,-22.56003253,-44.1699502,166719.0,Brazil,BR,BRA,Rio de Janeiro
831,BRA,207652865.0,Nova Iguacu,Nova Iguacu,-22.74002155,-43.46996708,844583.0,Brazil,BR,BRA,Rio de Janeiro
832,BRA,207652865.0,Duque de Caxias,Duque de Caxias,-22.76999388,-43.30997685,842890.0,Brazil,BR,BRA,Rio de Janeiro
833,BRA,207652865.0,Niteroi,Niteroi,-22.90001178,-43.09998967,993920.0,Brazil,BR,BRA,Rio de Janeiro
834,BRA,207652865.0,Cabo Frio,Cabo Frio,-22.88998655,-42.03997685,184980.0,Brazil,BR,BRA,Rio de Janeiro
835,BRA,207652865.0,Macae,Macae,-22.37999184,-41.78999211,133083.0,Brazil,BR,BRA,Rio de Janeiro
836,BRA,207652865.0,Miracema,Miracema,-21.41002521,-42.19996708,22564.5,Brazil,BR,BRA,Rio de Janeiro
837,BRA,207652865.0,Apodi,Apodi,-5.650005271,-37.80000309,8586.0,Brazil,BR,BRA,Rio Grande do Norte
838,BRA,207652865.0,Santa Cruz,Santa Cruz,-6.219996319,-36.02998194,22003.5,Brazil,BR,BRA,Rio Grande do Norte
839,BRA,207652865.0,Morrinhos,Morrinhos,-17.73004311,-49.10998458,27841.0,Brazil,BR,BRA,Goiás
840,BRA,207652865.0,Ceres,Ceres,-15.30331785,-49.60519983,18658.5,Brazil,BR,BRA,Goiás
841,BRA,207652865.0,Catalao,Catalao,-18.18004148,-47.9500037,53646.5,Brazil,BR,BRA,Goiás
842,BRA,207652865.0,Cristalina,Cristalina,-16.76999835,-47.61002446,25627.5,Brazil,BR,BRA,Goiás
843,BRA,207652865.0,Trindade,Trindade,-16.65000568,-49.49998661,93113.0,Brazil,BR,BRA,Goiás
844,BRA,207652865.0,Ipora,Ipora,-16.45001788,-51.12999048,23354.0,Brazil,BR,BRA,Goiás
845,BRA,207652865.0,Inhumas,Inhumas,-16.35999754,-49.49998661,36122.0,Brazil,BR,BRA,Goiás
846,BRA,207652865.0,Itaberai,Itaberai,-16.01996662,-49.80996769,18710.5,Brazil,BR,BRA,Goiás
847,BRA,207652865.0,Santo Andre,Santo Andre,-23.65283405,-46.52781661,662373.0,Brazil,BR,BRA,São Paulo
848,BRA,207652865.0,Pindamonhangaba,Pindamonhangaba,-22.91995888,-45.47002588,123985.0,Brazil,BR,BRA,São Paulo
849,BRA,207652865.0,Rio Claro,Rio Claro,-22.40996417,-47.56002751,177710.0,Brazil,BR,BRA,São Paulo
850,BRA,207652865.0,Ourinhos,Ourinhos,-22.97003335,-49.86998987,96994.0,Brazil,BR,BRA,São Paulo
851,BRA,207652865.0,Itanhaem,Itanhaem,-24.17998533,-46.80002222,82722.0,Brazil,BR,BRA,São Paulo
852,BRA,207652865.0,Jaboticabal,Jaboticabal,-21.25003497,-48.32998051,60780.5,Brazil,BR,BRA,São Paulo
853,BRA,207652865.0,Braganca Paulista,Braganca Paulista,-22.95003457,-46.5499858,126386.0,Brazil,BR,BRA,São Paulo
854,BRA,207652865.0,Jundiai,Jundiai,-23.19999347,-46.8799915,413568.5,Brazil,BR,BRA,São Paulo
855,BRA,207652865.0,Sao Jose dos Campos,Sao Jose dos Campos,-23.19999347,-45.87994918,695322.5,Brazil,BR,BRA,São Paulo
856,BRA,207652865.0,Guaratingueta,Guaratingueta,-22.81996499,-45.18999129,154730.0,Brazil,BR,BRA,São Paulo
857,BRA,207652865.0,Pirassununga,Pirassununga,-21.99004148,-47.42998377,51698.0,Brazil,BR,BRA,São Paulo
858,BRA,207652865.0,Americana,Americana,-22.74994342,-47.32998987,337747.0,Brazil,BR,BRA,São Paulo
859,BRA,207652865.0,Piracicaba,Piracicaba,-22.70999754,-47.63999679,329530.0,Brazil,BR,BRA,São Paulo
860,BRA,207652865.0,Sao Joao da Boa Vista,Sao Joao da Boa Vista,-21.98001626,-46.78999699,68666.0,Brazil,BR,BRA,São Paulo
861,BRA,207652865.0,Sao Carlos,Sao Carlos,-22.02001382,-47.88998153,175219.0,Brazil,BR,BRA,São Paulo
862,BRA,207652865.0,Tupa,Tupa,-21.92999347,-50.5199502,51798.5,Brazil,BR,BRA,São Paulo
863,BRA,207652865.0,Penapolis,Penapolis,-21.41002521,-50.08000289,44795.0,Brazil,BR,BRA,São Paulo
864,BRA,207652865.0,Presidente Prudente,Presidente Prudente,-22.12000771,-51.39000045,199722.0,Brazil,BR,BRA,São Paulo
865,BRA,207652865.0,Registro,Registro,-24.49004393,-47.83998458,49485.0,Brazil,BR,BRA,São Paulo
866,BRA,207652865.0,Tatui,Tatui,-23.35001015,-47.8600092,81936.0,Brazil,BR,BRA,São Paulo
867,BRA,207652865.0,Avare,Avare,-23.1100248,-48.9300214,70709.0,Brazil,BR,BRA,São Paulo
868,BRA,207652865.0,Garca,Garca,-22.22000161,-49.65997685,38460.0,Brazil,BR,BRA,São Paulo
869,BRA,207652865.0,Catanduva,Catanduva,-21.14001585,-48.97996668,105238.0,Brazil,BR,BRA,São Paulo
870,BRA,207652865.0,Batatais,Batatais,-20.89000527,-47.58999984,44061.0,Brazil,BR,BRA,São Paulo
871,BRA,207652865.0,Barretos,Barretos,-20.55002602,-48.58001693,97562.0,Brazil,BR,BRA,São Paulo
872,BRA,207652865.0,Marilia,Marilia,-22.21002806,-49.95001083,191083.5,Brazil,BR,BRA,São Paulo
873,BRA,207652865.0,Itu,Itu,-23.26004148,-47.30001754,228878.0,Brazil,BR,BRA,São Paulo
874,BRA,207652865.0,Itapetininga,Itapetininga,-23.58999551,-48.03999821,120889.0,Brazil,BR,BRA,São Paulo
875,BRA,207652865.0,Jaboatao,Jaboatao,-8.110010153,-35.02004358,681214.0,Brazil,BR,BRA,Pernambuco
876,BRA,207652865.0,Olinda,Olinda,-7.999991029,-34.8499506,659554.0,Brazil,BR,BRA,Pernambuco
877,BRA,207652865.0,Cabo de Santo Agostinho,Cabo de Santo Agostinho,-8.289999167,-35.02999129,144662.0,Brazil,BR,BRA,Pernambuco
878,BRA,207652865.0,Carpina,Carpina,-7.840000795,-35.26000309,118134.0,Brazil,BR,BRA,Pernambuco
879,BRA,207652865.0,Arcoverde,Arcoverde,-8.420017071,-37.06999597,53066.0,Brazil,BR,BRA,Pernambuco
880,BRA,207652865.0,Manacapuru,Manacapuru,-3.289580873,-60.6199797,55780.5,Brazil,BR,BRA,Amazonas
881,BRA,207652865.0,Maues,Maues,-3.389626446,-57.72002751,27518.0,Brazil,BR,BRA,Amazonas
882,BRA,207652865.0,Pedreiras,Pedreiras,-4.569606101,-44.67002303,13638.0,Brazil,BR,BRA,Maranhão
883,BRA,207652865.0,Codo,Codo,-4.479585756,-43.8799679,83288.0,Brazil,BR,BRA,Maranhão
884,BRA,207652865.0,Coroata,Coroata,-4.12958128,-44.15000309,34129.0,Brazil,BR,BRA,Maranhão
885,BRA,207652865.0,Chapadinha,Chapadinha,-3.739527569,-43.35999964,29807.5,Brazil,BR,BRA,Maranhão
886,BRA,207652865.0,Pinheiro,Pinheiro,-2.519602032,-45.0899974,24912.0,Brazil,BR,BRA,Maranhão
887,BRA,207652865.0,Barra do Corda,Barra do Corda,-5.509600404,-45.25996118,48901.0,Brazil,BR,BRA,Maranhão
888,BRA,207652865.0,Viana,Viana,-3.209585756,-45.00000289,15808.5,Brazil,BR,BRA,Maranhão
889,BRA,207652865.0,Colinas,Colinas,-6.039542217,-44.2399976,13562.5,Brazil,BR,BRA,Maranhão
890,BRA,207652865.0,Viseu,Viseu,-1.196478659,-46.14001083,9992.5,Brazil,BR,BRA,Pará
891,BRA,207652865.0,Capitao Poco,Capitao Poco,-1.74962319,-47.09000452,32704.0,Brazil,BR,BRA,Pará
892,BRA,207652865.0,Castanhal,Castanhal,-1.28959959,-47.93003076,125314.5,Brazil,BR,BRA,Pará
893,BRA,207652865.0,Salinopolis,Salinopolis,-0.609486065,-47.33998926,32384.5,Brazil,BR,BRA,Pará
894,BRA,207652865.0,Alenquer,Alenquer,-1.939585756,-54.78999964,26290.0,Brazil,BR,BRA,Pará
895,BRA,207652865.0,Oriximina,Oriximina,-1.759596742,-55.86998539,35300.0,Brazil,BR,BRA,Pará
896,BRA,207652865.0,Xinguara,Xinguara,-7.100614401,-49.94804712,4047.0,Brazil,BR,BRA,Pará
897,BRA,207652865.0,Jacundá,Jacunda,-4.599578431,-49.38996749,51375.0,Brazil,BR,BRA,Pará
898,BRA,207652865.0,Uruara,Uruara,-3.82959959,-54.02999435,10.0,Brazil,BR,BRA,Pará
899,BRA,207652865.0,Altamira,Altamira,-3.199612204,-52.21000208,56769.0,Brazil,BR,BRA,Pará
900,BRA,207652865.0,Paragominas,Paragominas,-2.959575176,-47.49000594,38095.5,Brazil,BR,BRA,Pará
901,BRA,207652865.0,Cameta,Cameta,-2.239619121,-49.509986,22705.0,Brazil,BR,BRA,Pará
902,BRA,207652865.0,Rolim de Moura,Rolim de Moura,-11.73020262,-61.78063237,24516.0,Brazil,BR,BRA,Rondônia
903,BRA,207652865.0,Ariquemes,Ariquemes,-9.939614239,-63.07998458,58096.0,Brazil,BR,BRA,Rondônia
904,BRA,207652865.0,Abuna,Abuna,-9.69539142,-65.35971623,1929.0,Brazil,BR,BRA,Rondônia
905,BRA,207652865.0,Tocantinopolis,Tocantinopolis,-6.319576804,-47.41998438,8750.0,Brazil,BR,BRA,Tocantins
906,BRA,207652865.0,Gurupi,Gurupi,-11.71960895,-49.05998763,45595.5,Brazil,BR,BRA,Tocantins
907,BRA,207652865.0,Aquidauana,Aquidauana,-20.46961749,-55.79001611,38053.0,Brazil,BR,BRA,Mato Grosso do Sul
908,BRA,207652865.0,Paranaiba,Paranaiba,-19.6795882,-51.20001205,25278.5,Brazil,BR,BRA,Mato Grosso do Sul
909,BRA,207652865.0,Sete Lagoas,Sete Lagoas,-19.44962807,-44.24999699,195032.0,Brazil,BR,BRA,Minas Gerais
910,BRA,207652865.0,Divinopolis,Divinopolis,-20.14953367,-44.89998316,181457.0,Brazil,BR,BRA,Minas Gerais
911,BRA,207652865.0,Ipatinga,Ipatinga,-19.4796004,-42.51999923,318320.0,Brazil,BR,BRA,Minas Gerais
912,BRA,207652865.0,Araxa,Araxa,-19.5795943,-46.95001306,70159.5,Brazil,BR,BRA,Minas Gerais
913,BRA,207652865.0,Lavras,Lavras,-21.24956989,-45.0099506,70436.0,Brazil,BR,BRA,Minas Gerais
914,BRA,207652865.0,Uba,Uba,-21.11960366,-42.95002466,81698.5,Brazil,BR,BRA,Minas Gerais
915,BRA,207652865.0,Campo Belo,Campo Belo,-20.88959186,-45.2799858,42042.5,Brazil,BR,BRA,Minas Gerais
916,BRA,207652865.0,Ponte Nova,Ponte Nova,-20.40962116,-42.8999502,40377.0,Brazil,BR,BRA,Minas Gerais
917,BRA,207652865.0,Curvelo,Curvelo,-18.75959267,-44.429986,45937.0,Brazil,BR,BRA,Minas Gerais
918,BRA,207652865.0,Paracatu,Paracatu,-17.19958453,-46.86999211,51673.5,Brazil,BR,BRA,Minas Gerais
919,BRA,207652865.0,Bocaiuva,Bocaiuva,-17.10961587,-43.81004968,22528.5,Brazil,BR,BRA,Minas Gerais
920,BRA,207652865.0,Aracuai,Aracuai,-16.85960529,-42.06994918,15301.5,Brazil,BR,BRA,Minas Gerais
921,BRA,207652865.0,Janauba,Janauba,-15.79961831,-43.30997685,38641.0,Brazil,BR,BRA,Minas Gerais
922,BRA,207652865.0,Juina,Juina,-11.3995768,-59.50002222,980.0,Brazil,BR,BRA,Mato Grosso
923,BRA,207652865.0,Barra do Garcas,Barra do Garcas,-15.87961342,-52.25999903,41214.5,Brazil,BR,BRA,Mato Grosso
924,BRA,207652865.0,Pontes e Lacerda,Pontes e Lacerda,-15.21960203,-59.3499797,22694.5,Brazil,BR,BRA,Mato Grosso
925,BRA,207652865.0,Barra do Bugres,Barra do Bugres,-15.06958535,-57.19000818,22386.0,Brazil,BR,BRA,Mato Grosso
926,BRA,207652865.0,Rondonopolis,Rondonopolis,-16.4694999,-54.63998295,146794.0,Brazil,BR,BRA,Mato Grosso
927,BRA,207652865.0,Uruguaiana,Uruguaiana,-29.76961831,-57.08998845,97736.5,Brazil,BR,BRA,Rio Grande do Sul
928,BRA,207652865.0,Sao Borja,Sao Borja,-28.65960854,-56.00997685,48450.5,Brazil,BR,BRA,Rio Grande do Sul
929,BRA,207652865.0,Novo Hamburgo,Novo Hamburgo,-29.70962197,-51.13998987,557017.0,Brazil,BR,BRA,Rio Grande do Sul
930,BRA,207652865.0,Rio Grande,Rio Grande,-32.04947915,-52.12000757,143150.0,Brazil,BR,BRA,Rio Grande do Sul
931,BRA,207652865.0,Camaqua,Camaqua,-30.83963051,-51.81000065,45112.5,Brazil,BR,BRA,Rio Grande do Sul
932,BRA,207652865.0,Bento Goncalves,Bento Goncalves,-29.1694999,-51.51996668,92561.5,Brazil,BR,BRA,Rio Grande do Sul
933,BRA,207652865.0,Vacaria,Vacaria,-28.49961831,-50.94000208,47275.5,Brazil,BR,BRA,Rio Grande do Sul
934,BRA,207652865.0,Ijui,Ijui,-28.38954751,-53.91994938,59047.0,Brazil,BR,BRA,Rio Grande do Sul
935,BRA,207652865.0,Santa Rosa,Santa Rosa,-27.86952757,-54.4599681,59119.0,Brazil,BR,BRA,Rio Grande do Sul
936,BRA,207652865.0,Maringa,Maringa,-23.4095414,-51.92996749,320029.5,Brazil,BR,BRA,Paraná
937,BRA,207652865.0,Cascavel,Cascavel,-24.95957599,-53.46002914,229300.0,Brazil,BR,BRA,Paraná
938,BRA,207652865.0,Campo Murao,Campo Murao,-24.04960569,-52.41998926,74173.0,Brazil,BR,BRA,Paraná
939,BRA,207652865.0,Foz do Iguacu,Foz do Iguacu,-25.52346922,-54.52998967,366989.0,Brazil,BR,BRA,Paraná
940,BRA,207652865.0,Sao Francisco do Sul,Sao Francisco do Sul,-26.23960122,-48.59998987,24354.5,Brazil,BR,BRA,Santa Catarina
941,BRA,207652865.0,Porto Uniao,Porto Uniao,-26.23960122,-51.07996769,50242.5,Brazil,BR,BRA,Santa Catarina
942,BRA,207652865.0,Itajai,Itajai,-26.89961261,-48.68001083,241421.0,Brazil,BR,BRA,Santa Catarina
943,BRA,207652865.0,Imbituba,Imbituba,-28.22960895,-48.66001205,28380.0,Brazil,BR,BRA,Santa Catarina
944,BRA,207652865.0,Lajes,Lajes,-27.80958291,-50.30998885,139972.0,Brazil,BR,BRA,Santa Catarina
945,BRA,207652865.0,Granja,Granja,-3.119513734,-40.83999841,17233.0,Brazil,BR,BRA,Ceará
946,BRA,207652865.0,Crato,Crato,-7.229598776,-39.42000757,164149.5,Brazil,BR,BRA,Ceará
947,BRA,207652865.0,Itapipoca,Itapipoca,-3.499542217,-39.58002364,31041.0,Brazil,BR,BRA,Ceará
948,BRA,207652865.0,Paracuru,Paracuru,-3.399548321,-39.04003076,19860.0,Brazil,BR,BRA,Ceará
949,BRA,207652865.0,Acarau,Acarau,-2.889605287,-40.11999068,21024.5,Brazil,BR,BRA,Ceará
950,BRA,207652865.0,Taua,Taua,-5.999492982,-40.31003076,29188.0,Brazil,BR,BRA,Ceará
951,BRA,207652865.0,Crateus,Crateus,-5.165590394,-40.66600387,40338.0,Brazil,BR,BRA,Ceará
952,BRA,207652865.0,Baturite,Baturite,-4.329569073,-38.87998885,17797.5,Brazil,BR,BRA,Ceará
953,BRA,207652865.0,Ipu,Ipu,-4.319595521,-40.72005742,14479.5,Brazil,BR,BRA,Ceará
954,BRA,207652865.0,Floriano,Floriano,-6.769575176,-43.0299681,35923.0,Brazil,BR,BRA,Piauí
955,BRA,207652865.0,Piripiri,Piripiri,-4.269572735,-41.78999211,32639.0,Brazil,BR,BRA,Piauí
956,BRA,207652865.0,Penedo,Penedo,-10.26961994,-36.58002588,37515.5,Brazil,BR,BRA,Alagoas
957,BRA,207652865.0,Itabuna,Itabuna,-14.78960244,-39.28001611,213799.0,Brazil,BR,BRA,Bahia
958,BRA,207652865.0,Itamaraju,Itamaraju,-17.0395943,-39.52994918,35055.0,Brazil,BR,BRA,Bahia
959,BRA,207652865.0,Guanambi,Guanambi,-14.22958494,-42.78998275,45730.0,Brazil,BR,BRA,Bahia
960,BRA,207652865.0,Porto Seguro,Porto Seguro,-16.42960569,-39.08002832,72031.0,Brazil,BR,BRA,Bahia
961,BRA,207652865.0,Valenca,Valenca,-13.3596122,-39.08002832,56584.5,Brazil,BR,BRA,Bahia
962,BRA,207652865.0,Serrinha,Serrinha,-11.64958738,-39.01000676,52953.5,Brazil,BR,BRA,Bahia
963,BRA,207652865.0,Tucano,Tucano,-10.96962889,-38.78999435,16199.0,Brazil,BR,BRA,Bahia
964,BRA,207652865.0,Senhor do Bonfim,Senhor do Bonfim,-10.44960895,-40.19001225,43577.0,Brazil,BR,BRA,Bahia
965,BRA,207652865.0,Remanso,Remanso,-9.599583314,-42.10999841,37945.0,Brazil,BR,BRA,Bahia
966,BRA,207652865.0,Itambe,Itambe,-15.23960081,-40.62998539,15450.5,Brazil,BR,BRA,Bahia
967,BRA,207652865.0,Bom Jesus da Lapa,Bom Jesus da Lapa,-13.2495414,-43.44002059,40691.0,Brazil,BR,BRA,Bahia
968,BRA,207652865.0,Itaberaba,Itaberaba,-12.5196118,-40.2999797,31722.0,Brazil,BR,BRA,Bahia
969,BRA,207652865.0,Sao Mateus,Sao Mateus,-18.72962034,-39.85998071,63375.5,Brazil,BR,BRA,Espírito Santo
970,BRA,207652865.0,Patos,Patos,-7.019585756,-37.29000838,85720.5,Brazil,BR,BRA,Paraíba
971,BRA,207652865.0,Volta Redonda,Volta Redonda,-22.51956989,-44.09496769,352971.0,Brazil,BR,BRA,Rio de Janeiro
972,BRA,207652865.0,Petropolis,Petropolis,-22.50949298,-43.19998356,279381.0,Brazil,BR,BRA,Rio de Janeiro
973,BRA,207652865.0,Nova Cruz,Nova Cruz,-6.469593487,-35.43999211,22563.5,Brazil,BR,BRA,Rio Grande do Norte
974,BRA,207652865.0,Caico,Caico,-6.459619935,-37.10001998,42378.0,Brazil,BR,BRA,Rio Grande do Norte
975,BRA,207652865.0,Acu,Acu,-5.57962197,-36.91005742,33303.0,Brazil,BR,BRA,Rio Grande do Norte
976,BRA,207652865.0,Estancia,Estancia,-11.26961058,-37.45002446,50690.0,Brazil,BR,BRA,Sergipe
977,BRA,207652865.0,Caracarai,Caracarai,1.816231505,-61.12767481,11368.0,Brazil,BR,BRA,Roraima
978,BRA,207652865.0,Porto Santana,Porto Santana,-0.039598369,-51.17998743,68849.0,Brazil,BR,BRA,Amapá
979,BRA,207652865.0,Rio Verde,Rio Verde,-17.81959837,-50.92997685,48318.0,Brazil,BR,BRA,Goiás
980,BRA,207652865.0,Pires do Rio,Pires do Rio,-17.29952675,-48.27998356,21688.0,Brazil,BR,BRA,Goiás
981,BRA,207652865.0,Anapolis,Anapolis,-16.31958657,-48.9599679,278595.5,Brazil,BR,BRA,Goiás
982,BRA,207652865.0,Goianesia,Goianesia,-15.30962238,-49.1300092,39217.5,Brazil,BR,BRA,Goiás
983,BRA,207652865.0,Niquelandia,Niquelandia,-14.46962197,-48.47002364,19785.0,Brazil,BR,BRA,Goiás
984,BRA,207652865.0,Itumbiara,Itumbiara,-18.39961465,-49.21000431,65343.5,Brazil,BR,BRA,Goiás
985,BRA,207652865.0,Jatai,Jatai,-17.87959471,-51.75000431,57135.0,Brazil,BR,BRA,Goiás
986,BRA,207652865.0,Mineiros,Mineiros,-17.56953611,-52.55998071,28247.0,Brazil,BR,BRA,Goiás
987,BRA,207652865.0,Formosa,Formosa,-15.53947915,-47.33998926,62585.5,Brazil,BR,BRA,Goiás
988,BRA,207652865.0,Sao Jose do Rio Preto,Sao Jose do Rio Preto,-20.79962319,-49.38996749,358243.5,Brazil,BR,BRA,São Paulo
989,BRA,207652865.0,Limeira,Limeira,-22.54954222,-47.40001144,241071.0,Brazil,BR,BRA,São Paulo
990,BRA,207652865.0,Taubate,Taubate,-23.01953937,-45.55999455,327600.5,Brazil,BR,BRA,São Paulo
991,BRA,207652865.0,Jau,Jau,-22.28960976,-48.57001754,102565.5,Brazil,BR,BRA,São Paulo
992,BRA,207652865.0,Assis,Assis,-22.65961302,-50.41998214,79133.0,Brazil,BR,BRA,São Paulo
993,BRA,207652865.0,Itapeva,Itapeva,-23.97958413,-48.88002446,55324.0,Brazil,BR,BRA,São Paulo
994,BRA,207652865.0,Botucatu,Botucatu,-22.87959959,-48.44999903,94938.5,Brazil,BR,BRA,São Paulo
995,BRA,207652865.0,Novo Horizonte,Novo Horizonte,-21.45958291,-49.2200037,29554.0,Brazil,BR,BRA,São Paulo
996,BRA,207652865.0,Andradina,Andradina,-20.90959064,-51.37994938,45715.0,Brazil,BR,BRA,São Paulo
997,BRA,207652865.0,Fernandopolis,Fernandopolis,-20.2696297,-50.26004358,55587.0,Brazil,BR,BRA,São Paulo
998,BRA,207652865.0,Barreiros,Barreiros,-8.829604473,-35.20000676,35472.5,Brazil,BR,BRA,Pernambuco
999,BRA,207652865.0,Salgueiro,Salgueiro,-8.059625632,-39.13002527,31565.0,Brazil,BR,BRA,Pernambuco
1000,BRA,207652865.0,Goiana,Goiana,-7.559604473,-34.99999312,57764.5,Brazil,BR,BRA,Pernambuco
1001,BRA,207652865.0,Timbauba,Timbauba,-7.499608135,-35.32002527,51327.5,Brazil,BR,BRA,Pernambuco
1002,BRA,207652865.0,Bacabal,Bacabal,-4.229988588,-44.79998926,57296.5,Brazil,BR,BRA,Maranhão
1003,BRA,207652865.0,Braganca,Braganca,-1.05002765,-46.76999821,56864.5,Brazil,BR,BRA,Pará
1004,BRA,207652865.0,Obidos,Obidos,-1.910026836,-55.52000676,26278.5,Brazil,BR,BRA,Pará
1005,BRA,207652865.0,Guajara-Miram,Guajara-Miram,-10.80002684,-65.34994938,51852.5,Brazil,BR,BRA,Rondônia
1006,BRA,207652865.0,Porto Nacional,Porto Nacional,-10.70003294,-48.41994918,9129.0,Brazil,BR,BRA,Tocantins
1007,BRA,207652865.0,Dourados,Dourados,-22.23002684,-54.80999841,144743.5,Brazil,BR,BRA,Mato Grosso do Sul
1008,BRA,207652865.0,Governador Valadares,Governador Valadares,-18.87002521,-41.97000696,201317.0,Brazil,BR,BRA,Minas Gerais
1009,BRA,207652865.0,Pirapora,Pirapora,-17.33001585,-44.92998132,55910.0,Brazil,BR,BRA,Minas Gerais
1010,BRA,207652865.0,Juiz de Fora,Juiz de Fora,-21.77000324,-43.3749858,464764.5,Brazil,BR,BRA,Minas Gerais
1011,BRA,207652865.0,Santa Maria,Santa Maria,-29.68331867,-53.80000838,239211.5,Brazil,BR,BRA,Rio Grande do Sul
1012,BRA,207652865.0,Passo Fundo,Passo Fundo,-28.25002114,-52.41998926,164047.0,Brazil,BR,BRA,Rio Grande do Sul
1013,BRA,207652865.0,Xapeco,Xapeco,-27.10001382,-52.64002751,154794.0,Brazil,BR,BRA,Santa Catarina
1014,BRA,207652865.0,Joinville,Joinville,-26.31995807,-48.83994938,710737.5,Brazil,BR,BRA,Santa Catarina
1015,BRA,207652865.0,Juazeiro do Norte,Juazeiro do Norte,-7.210013409,-39.32001367,222861.0,Brazil,BR,BRA,Ceará
